stop_id,stop_name,stop_lat,stop_lon,zone_id,stop_url,location_type,parent_station
"de:07334:1714:1:1","Wörth (Rhein) Alte Bahnmeisterei","49.04873645","8.26621640","","","","Pde:07334:1714"
"de:07334:1714:1:2","Wörth (Rhein) Alte Bahnmeisterei","49.04844207","8.26672844","","","","Pde:07334:1714"
"de:07334:1721:1:1","Maximiliansau Eisenbahnstraße","49.03730710","8.29789998","","","","Pde:07334:1721"
"de:07334:1721:2:2","Maximiliansau Eisenbahnstraße","49.03713631","8.29896897","","","","Pde:07334:1721"
"de:07334:1721:3:31","Maximiliansau Eisenbahnstraße","49.03753088","8.29664233","","","","Pde:07334:1721"
"de:07334:1721:3:32","Maximiliansau Eisenbahnstraße","49.03751910","8.29674115","","","","Pde:07334:1721"
"de:07334:1723:1:1","Maximiliansau West","49.03886178","8.29202499","","","","Pde:07334:1723"
"de:07334:1723:2:2","Maximiliansau West","49.03899134","8.29171957","","","","Pde:07334:1723"
"de:07334:1723:3:31","Maximiliansau West","49.03876756","8.29118956","","","","Pde:07334:1723"
"de:07334:1731:2:3","Wörth (Rhein)","49.04563942","8.27316037","","","","Pde:07334:1731"
"de:07334:1731:4:11","Wörth Bahnhof","49.04614579","8.27268427","","","","Pde:07334:1731"
"de:07334:1734:1:1","Wörth (Rhein) Bienwaldhalle","49.04994342","8.26036836","","","","Pde:07334:1734"
"de:07334:1734:2:2","Wörth (Rhein) Bienwaldhalle","49.04964904","8.26131159","","","","Pde:07334:1734"
"de:07334:1735:1:1","Wörth (Rhein) Bürgerpark","49.05087953","8.25412507","","","","Pde:07334:1735"
"de:07334:1735:2:2","Wörth (Rhein) Bürgerpark","49.05081477","8.25505932","","","","Pde:07334:1735"
"de:07334:1736:1:1","Wörth (Rhein) Rathaus","49.05234549","8.24980418","","","","Pde:07334:1736"
"de:07334:1736:2:11","Wörth (Rhein) Rathaus","49.05255743","8.24997486","","","","Pde:07334:1736"
"de:07334:1738:1:1","Wörth (Rhein) Badepark","49.05848554","8.24411784","","","","Pde:07334:1738"
"de:07334:1738:1:2","Wörth (Rhein) Badepark","49.05850909","8.24423462","","","","Pde:07334:1738"
"de:07334:1739:1:1","Wörth (Rhein) Badallee","49.05597781","8.24992096","","","","Pde:07334:1739"
"de:07334:1741:1:1","Wörth (Rhein) Zügelstraße","49.05315793","8.26212008","","","","Pde:07334:1741"
"de:07334:1741:2:2","Wörth (Rhein) Zügelstraße","49.05249267","8.26189550","","","","Pde:07334:1741"
"de:07334:1743:1:1","Rheinzabern Alte Römerstraße","49.10990741","8.27307054","","","","Pde:07334:1743"
"de:07334:1743:2:2","Rheinzabern Alte Römerstraße","49.10905474","8.27297173","","","","Pde:07334:1743"
"de:07334:1743:3:91","Rheinzabern Alte Römerstr. (Ersatz)","49.10859017","8.27395987","","","","Pde:07334:1743"
"de:07334:1744:1:1","Rheinzabern Rappengasse","49.11487027","8.27334902","","","","Pde:07334:1744"
"de:07334:1744:2:2","Rheinzabern Rappengasse","49.11407060","8.27316936","","","","Pde:07334:1744"
"de:07334:1744:6:91","Rheinzabern Rappengasse (Ersatzhalt)","49.11451748","8.27199256","","","","Pde:07334:1744"
"de:07334:1744:6:92","Rheinzabern Rappengasse (Ersatzhalt)","49.11457040","8.27170510","","","","Pde:07334:1744"
"de:07334:1745:1:1","Rülzheim Freizeitzentrum","49.15268696","8.27955638","","","","Pde:07334:1745"
"de:07334:1745:2:2","Rülzheim Freizeitzentrum","49.15037200","8.27911620","","","","Pde:07334:1745"
"de:07334:1745:3:91","Rülzheim Freizeitzentrum (Ersatzhalt)","49.15141198","8.27907129","","","","Pde:07334:1745"
"de:07334:1745:3:92","Rülzheim Freizeitzentrum (Ersatzhalt)","49.15169988","8.27955638","","","","Pde:07334:1745"
"de:07334:1746:1:1","Bellheim Am Mühlbuckel","49.19214798","8.29654352","","","","Pde:07334:1746"
"de:07334:1746:1:3","Bellheim Am Mühlbuckel (Ersatzhalt)","49.19299335","8.29760353","","","","Pde:07334:1746"
"de:07334:1746:1:4","Bellheim Am Mühlbuckel (Ersatzhalt)","49.19289943","8.29770235","","","","Pde:07334:1746"
"de:07334:1746:2:2","Bellheim Am Mühlbuckel","49.19305206","8.29906779","","","","Pde:07334:1746"
"de:07334:1747:1:2","Germersheim Süd/Nolte","49.20842478","8.37429271","","","","Pde:07334:1747"
"de:07334:1747:2:1","Germersheim Süd/Nolte","49.20822524","8.37301710","","","","Pde:07334:1747"
"de:07334:1748:2:2","Germersheim Mitte/Rhein","49.22094129","8.37893700","","","","Pde:07334:1748"
"de:07334:1748:3:1","Germersheim Mitte/Rhein","49.21882316","8.37975446","","","","Pde:07334:1748"
"de:07334:1748:4:91","Germersheim Mitte","49.21987344","8.37687986","","","","Pde:07334:1748"
"de:07334:1748:4:92","Germersheim Mitte","49.21999078","8.37687986","","","","Pde:07334:1748"
"de:07334:1752:1:1","Wörth Ottstraße","49.05198636","8.26824659","","","","Pde:07334:1752"
"de:07334:1752:1:2","Wörth Ottstraße","49.05167433","8.26833642","","","","Pde:07334:1752"
"de:07334:1753:1:1","Wörth Wasserturm","49.04856571","8.25756562","","","","Pde:07334:1753"
"de:07334:1753:1:2","Wörth Wasserturm","49.04864814","8.25747579","","","","Pde:07334:1753"
"de:07334:1754:1:1","Wörth Silcherstraße","49.05611909","8.24535752","","","","Pde:07334:1754"
"de:07334:1755:1:1","Wörth Richard-Wagner-Str.","49.05325801","8.24165646","","","","Pde:07334:1755"
"de:07334:32429:0:1","Wörth Dorschbergstraße","49.05021425","8.25156487","","","","Pde:07334:32429"
"de:07334:32429:0:2","Wörth Dorschbergstraße","49.05019658","8.25144809","","","","Pde:07334:32429"
"de:07334:32431:0:1","Wörth Berufsschule","49.05135053","8.24737872","","","","Pde:07334:32431"
"de:07334:32451:1:1","Rülzheim Bf.","49.16106456","8.29097397","","","","Pde:07334:32451"
"de:07334:32451:2:11","Rülzheim Bahnhof","49.16082958","8.29057871","","","","Pde:07334:32451"
"de:07334:32451:2:92","Rülzheim Bahnhof","49.16051236","8.29048888","","","","Pde:07334:32451"
"de:07334:32451:4:2","Rülzheim Bf.","49.16052411","8.28956361","","","","Pde:07334:32451"
"de:07334:32625:0:1","Sondernheim Scherer","49.19787159","8.36000949","","","","Pde:07334:32625"
"de:07334:32625:0:2","Sondernheim Scherer","49.19783050","8.36018017","","","","Pde:07334:32625"
"de:07334:32636:0:1","Germersheim Wasserturm","49.21229802","8.36576770","","","","Pde:07334:32636"
"de:07334:32636:0:2","Germersheim Wasserturm","49.21270293","8.36636058","","","","Pde:07334:32636"
"de:07334:32637:2:13","Germersheim Bahnhof","49.22502476","8.36510294","","","","Pde:07334:32637"
"de:07334:32637:4:4","Germersheim","49.22569357","8.36491430","","","","Pde:07334:32637"
"de:07334:32660:1:1","Bellheim Bf.","49.18796199","8.29444146","","","","Pde:07334:32660"
"de:07334:32660:2:11","Bellheim Bahnhof","49.18937693","8.29430672","","","","Pde:07334:32660"
"de:07334:32660:4:2","Bellheim Bf.","49.18906576","8.29463011","","","","Pde:07334:32660"
"de:07334:35002:1:1","Sondernheim","49.19553526","8.36036882","","","","Pde:07334:35002"
"de:07334:35002:2:22","Sondernheim","49.19470167","8.36060238","","","","Pde:07334:35002"
"de:07334:35002:4:2","Sondernheim","49.19480734","8.36026102","","","","Pde:07334:35002"
"de:07334:35003:1:1","Rheinzabern Bf.","49.12032650","8.27442700","","","","Pde:07334:35003"
"de:07334:35003:3:11","Rheinzabern","49.11913888","8.27422039","","","","Pde:07334:35003"
"de:07334:35003:3:12","Rheinzabern","49.11919179","8.27423835","","","","Pde:07334:35003"
"de:07334:35003:4:2","Rheinzabern Bf.","49.11926234","8.27405869","","","","Pde:07334:35003"
"de:07334:35004:1:1","Jockgrim Bf.","49.09318644","8.27235189","","","","Pde:07334:35004"
"de:07334:35004:3:91","Jockgrim Bahnhof (Ersatzhalt)","49.09233936","8.27277410","","","","Pde:07334:35004"
"de:07334:35004:3:92","Jockgrim Bahnhof (Ersatzhalt)","49.09159815","8.27162425","","","","Pde:07334:35004"
"de:07334:35004:4:2","Jockgrim Bf.","49.09052750","8.27210934","","","","Pde:07334:35004"
"de:08115:4510:2:1","Bondorf (b. Herrenberg)","48.52347798","8.82789701","","","","Pde:08115:4510"
"de:08115:4510:3:3","Bondorf Bahnhof","48.52346013","8.82823837","","","","Pde:08115:4510"
"de:08115:4512:5:12","Herrenberg ZOB","48.59400368","8.86443149","","","","Pde:08115:4512"
"de:08115:4512:5:A","Herrenberg ZOB","48.59412845","8.86391047","","","","Pde:08115:4512"
"de:08115:4745:1:3","Nebringen Postamt","48.56225491","8.84806419","","","","Pde:08115:4745"
"de:08115:4745:1:4","Nebringen Postamt","48.56235003","8.84797436","","","","Pde:08115:4745"
"de:08121:1113:0:1","Heilbronn Hbf/Busbahnhof","49.14184568","9.20696809","","","","Pde:08121:1113"
"de:08121:1113:0:6","Heilbronn Hbf/Busbahnhof","49.14179279","9.20704894","","","","Pde:08121:1113"
"de:08121:1113:0:Hp7","Heilbronn Hbf Busbahnhof","49.14168701","9.20598893","","","","Pde:08121:1114"
"de:08121:1114:3:1","Heilbronn Hbf/Willy-Brandt-Platz","49.14258613","9.20827065","","","","Pde:08121:1114"
"de:08121:1114:3:2","Heilbronn Hbf/Willy-Brandt-Platz","49.14268604","9.20890846","","","","Pde:08121:1114"
"de:08121:1114:3:3","Heilbronn Hbf/Willy-Brandt-Platz","49.14253912","9.20848625","","","","Pde:08121:1114"
"de:08121:1123:91:1","Heilbronn Harmonie","49.14162236","9.22305692","","","","Pde:08121:1123"
"de:08121:1123:91:2","Heilbronn Harmonie","49.14151658","9.22373964","","","","Pde:08121:1123"
"de:08121:137:2:2","Heilbronn Neckar-Turm","49.14271542","9.21347190","","","","Pde:08121:137"
"de:08121:137:3:1","Heilbronn Neckar-Turm","49.14259789","9.21406478","","","","Pde:08121:137"
"de:08121:173:1:1","Heilbronn Pfühlpark","49.13988871","9.24166103","","","","Pde:08121:173"
"de:08121:173:2:2","Heilbronn Pfühlpark","49.14007677","9.24057407","","","","Pde:08121:173"
"de:08121:173:5:0","Heilbronn Pfühlpark (Ersatzhalt)","49.13981231","9.24164306","","","","Pde:08121:173"
"de:08121:173:5:1","Heilbronn Pfühlpark (Ersatzhalt)","49.14002387","9.24036746","","","","Pde:08121:173"
"de:08121:2000:1:3","Böckingen Berufsschulzentrum","49.14032947","9.18083610","","","","Pde:08121:2000"
"de:08121:2000:2:4","Böckingen Berufsschulzentrum","49.14042350","9.18208476","","","","Pde:08121:2000"
"de:08121:2001:1:1","Böckingen West","49.13935390","9.16480117","","","","Pde:08121:2001"
"de:08121:2001:2:2","Böckingen West","49.13924812","9.16609475","","","","Pde:08121:2001"
"de:08121:2001:5:3","Böckingen West (Ersatzhalt)","49.14004738","9.16453168","","","","Pde:08121:2001"
"de:08121:2001:5:4","Böckingen West (Ersatzhalt)","49.14010615","9.16450473","","","","Pde:08121:2001"
"de:08121:23:90:1","Heilbronn Harmonie/Kunsthalle","49.14283883","9.22273353","","","","Pde:08121:23"
"de:08121:24:90:1","HN Harmonie/Hafenmarktpass.","49.14218065","9.22225742","","","","Pde:08121:24"
"de:08121:26:1:1","Heilbronn Hbf","49.14296811","9.20740827","","","","Pde:08121:26"
"de:08121:3032:1:1","Heilbronn Friedensplatz","49.14125801","9.22937208","","","","Pde:08121:3032"
"de:08121:3032:2:2","Heilbronn Friedensplatz","49.14132853","9.22842885","","","","Pde:08121:3032"
"de:08121:3033:1:1","Heilbronn Finanzamt","49.14042350","9.23507638","","","","Pde:08121:3033"
"de:08121:3033:2:2","Heilbronn Finanzamt","49.14078199","9.23461824","","","","Pde:08121:3033"
"de:08121:31001:1:1","Heilbronn Techn. Schulzentrum","49.14916748","9.22161962","","","","Pde:08121:31001"
"de:08121:31001:1:2","Heilbronn Techn. Schulzentrum","49.14872679","9.22147589","","","","Pde:08121:31001"
"de:08121:31002:1:1","Heilbronn Theater","49.14632350","9.22189809","","","","Pde:08121:31002"
"de:08121:31002:1:2","Heilbronn Theater","49.14624711","9.22217657","","","","Pde:08121:31002"
"de:08121:31003:1:1","Heilbronn Industrieplatz","49.15510169","9.21782873","","","","Pde:08121:31003"
"de:08121:31003:1:2","Heilbronn Industrieplatz","49.15574794","9.21805330","","","","Pde:08121:31003"
"de:08121:31004:1:1","Heilbronn Hans-Rießer-Straße","49.16267999","9.21966129","","","","Pde:08121:31004"
"de:08121:31004:1:2","Heilbronn Hans-Rießer-Straße","49.16201620","9.21950858","","","","Pde:08121:31004"
"de:08121:31004:3:3","Heilbronn Hans-Rießer-Straße","49.16181060","9.21944569","","","","Pde:08121:31004"
"de:08121:31004:3:4","Heilbronn Hans-Rießer-Straße","49.16251551","9.21970620","","","","Pde:08121:31004"
"de:08121:31501:1:1","Heilbronn Kaufland","49.17038635","9.22454812","","","","Pde:08121:31501"
"de:08121:31501:1:2","Heilbronn Kaufland","49.16985775","9.22448524","","","","Pde:08121:31501"
"de:08121:55:2:2","Heilbronn Rathaus","49.14203373","9.21835873","","","","Pde:08121:55"
"de:08121:55:3:1","Heilbronn Rathaus","49.14201022","9.21867314","","","","Pde:08121:55"
"de:08121:59:0:0","Böckingen Sandhof","49.14067033","9.18213866","","","","Pde:08121:59"
"de:08121:59:0:1","Böckingen Sandhof","49.14068208","9.18290223","","","","Pde:08121:59"
"de:08121:75:1:1","Heilbronn Sülmertor","49.15137085","9.22047876","","","","Pde:08121:75"
"de:08121:75:3:2","Heilbronn Sülmertor","49.15101244","9.22016435","","","","Pde:08121:75"
"de:08121:77:3:3","Böckingen Sonnenbrunnen (Ersatz)","49.14106995","9.19162487","","","","Pde:08121:77"
"de:08121:77:3:4","Böckingen Sonnenbrunnen (Ersatz)","49.14118749","9.19186741","","","","Pde:08121:77"
"de:08121:77:90:2","Böckingen Sonnenbrunnen","49.14031184","9.19295438","","","","Pde:08121:77"
"de:08121:77:91:1","Böckingen Sonnenbrunnen","49.14092891","9.18961264","","","","Pde:08121:77"
"de:08121:8170:1:1","Heilbronn Trappensee","49.14082900","9.25395897","","","","Pde:08121:8170"
"de:08121:8170:2:2","Heilbronn Trappensee","49.14000624","9.25169521","","","","Pde:08121:8170"
"de:08121:8194:0:0","Heilbronn Pfühlpark West","49.14107583","9.24481412","","","","Pde:08121:8194"
"de:08121:8194:0:1","Heilbronn Pfühlpark West","49.14102881","9.24483208","","","","Pde:08121:8194"
"de:08125:10013:0:1","Weinsberg Weidachstraße","49.15333912","9.27413513","","","","Pde:08125:10013"
"de:08125:10013:0:2","Weinsberg Weidachstraße","49.15355063","9.27389258","","","","Pde:08125:10013"
"de:08125:1023:2:1","Eschenau (b. Heilbronn)","49.14416103","9.40405847","","","","Pde:08125:1023"
"de:08125:1023:3:2","Eschenau (b. Heilbronn)","49.14357339","9.40157912","","","","Pde:08125:1023"
"de:08125:1110:1:3","Eppingen West","49.13240096","8.90462212","0278","","","Pde:08125:1110"
"de:08125:1110:1:4","Eppingen West","49.13234218","8.90472093","0278","","","Pde:08125:1110"
"de:08125:1110:2:1","Eppingen West","49.13248913","8.90411008","0278","","","Pde:08125:1110"
"de:08125:1110:90:2","Eppingen West","49.13260080","8.90464009","0278","","","Pde:08125:1110"
"de:08125:1120:1","Bad Friedrichshall-Kochendorf","49.21835375","9.21158543","","","","Pde:08125:1120"
"de:08125:1120:2:1","Bad Friedrichshall-Kochendorf","49.21906959","9.21066915","","","","Pde:08125:1120"
"de:08125:1120:2:2","Bad Friedrichshall-Kochendorf","49.21860019","9.21095661","","","","Pde:08125:1120"
"de:08125:1565:1:1","Wieslensdorf","49.14974330","9.42214155","","","","Pde:08125:1565"
"de:08125:1565:2:2","Wieslensdorf","49.14988432","9.42251885","","","","Pde:08125:1565"
"de:08125:1565:90:91","Wieslensdorf (Ersatzhalt)","49.14494847","9.42838485","","","","Pde:08125:1565"
"de:08125:1565:90:92","Wieslensdorf (Ersatzhalt)","49.14518939","9.42869027","","","","Pde:08125:1565"
"de:08125:1598:1:1","Weinsberg/Ellhofen Gewerbegeb.","49.14879142","9.30603430","","","","Pde:08125:1598"
"de:08125:1598:2:2","Weinsberg/Ellhofen Gewerbegeb.","49.14868566","9.30479463","","","","Pde:08125:1598"
"de:08125:1598:3","Weinsberg/Ellhofen Gewerbegebiet","49.14847412","9.30738178","","","","Pde:08125:1598"
"de:08125:1621:0:1","Neckarsulm","49.18887789","9.21886179","","","","Pde:08125:620"
"de:08125:1630:1:1","Bad Rappenau Kurpark","49.24038754","9.11358822","","","",""
"de:08125:1700:2:1","Stetten am Heuchelberg","49.13699131","9.01524965","","","","Pde:08125:1700"
"de:08125:1700:2:2","Stetten am Heuchelberg","49.13667981","9.01414472","","","","Pde:08125:1700"
"de:08125:1705:1:1","Schwaigern West","49.13904242","9.04197453","","","","Pde:08125:1705"
"de:08125:1705:1:2","Schwaigern West","49.13886024","9.04307047","","","","Pde:08125:1705"
"de:08125:1705:5:1","Schwaigern West (Ersatzhalt)","49.13867805","9.04892749","","","","Pde:08125:1705"
"de:08125:1705:5:2","Schwaigern West (Ersatzhalt)","49.13864279","9.04892749","","","","Pde:08125:1705"
"de:08125:1800:1:1","Schwaigern Heilbronner Str. (Ersatz)","49.13881322","9.06673210","","","","Pde:08125:1800"
"de:08125:1801:1:1","Leingarten Allmandstraße (Ersatzhalt)","49.14344998","9.13021604","","","","Pde:08125:1801"
"de:08125:1801:1:2","Leingarten Allmandstraße (Ersatzhalt)","49.14357339","9.13026095","","","","Pde:08125:1801"
"de:08125:1939:1:1","Weinsberg West","49.15126509","9.27459327","","","","Pde:08125:1939"
"de:08125:1939:2:0","Weinsberg West","49.15121809","9.27334461","","","","Pde:08125:1939"
"de:08125:2002:1:1","Bad Wimpfen","49.22955373","9.16790036","","","","Pde:08125:2002"
"de:08125:2002:1:2","Bad Wimpfen","49.22981771","9.16721764","","","","Pde:08125:2002"
"de:08125:2002:30:1","Bad Wimpfen","49.22924281","9.16693917","","","","Pde:08125:2002"
"de:08125:2003:2:2","Ellhofen","49.14991370","9.31557441","","","","Pde:08125:2003"
"de:08125:2003:3:1","Ellhofen","49.14998421","9.31657154","","","","Pde:08125:2003"
"de:08125:2004:1:1","Sülzbach","49.14824496","9.34131114","","","","Pde:08125:2004"
"de:08125:2004:2:2","Sülzbach","49.14854464","9.33987384","","","","Pde:08125:2004"
"de:08125:2004:3:91","Sülzbach (Ersatzhalt)","49.14695812","9.34040385","","","","Pde:08125:2004"
"de:08125:2004:3:92","Sülzbach (Ersatzhalt)","49.14704626","9.34061944","","","","Pde:08125:2004"
"de:08125:2005:1:1","Sülzbach Schule","49.14468991","9.35190228","","","","Pde:08125:2005"
"de:08125:2005:2:2","Sülzbach Schule","49.14518939","9.35054583","","","","Pde:08125:2005"
"de:08125:2006:0:1","Sülzbach M.-Beheim-Schule","49.14331482","9.35197415","","","","Pde:08125:2006"
"de:08125:2006:0:2","Sülzbach M.-Beheim-Schule","49.14286821","9.35182143","","","","Pde:08125:2006"
"de:08125:2017:1:1","Willsbach","49.14286233","9.35731014","","","","Pde:08125:2017"
"de:08125:2017:2:2","Willsbach","49.14239808","9.35842405","","","","Pde:08125:2017"
"de:08125:2017:3:0","Willsbach Bahnhof","49.14225704","9.35811862","","","","Pde:08125:2017"
"de:08125:2032:1:3","Affaltrach (Ersatzhalt)","49.13615085","9.38134007","","","","Pde:08125:2032"
"de:08125:2032:1:4","Affaltrach (Ersatzhalt)","49.13623313","9.38127719","","","","Pde:08125:2032"
"de:08125:2032:2:1","Affaltrach","49.13793166","9.37948056","","","","Pde:08125:2032"
"de:08125:2032:4:2","Affaltrach","49.13769069","9.37861818","","","","Pde:08125:2032"
"de:08125:31502:1:1","Neckarsulm Süd","49.18039342","9.22062249","","","","Pde:08125:31502"
"de:08125:31502:1:2","Neckarsulm Süd","49.18020552","9.22064944","","","","Pde:08125:31502"
"de:08125:31502:3:SEV1","Neckarsulm Süd","49.17923073","9.22003858","","","","Pde:08125:31502"
"de:08125:31502:3:SEV2","Neckarsulm Süd","49.17987668","9.21911332","","","","Pde:08125:31502"
"de:08125:31503:1:1","Neckarsulm Mitte","49.19346887","9.22301201","","","","Pde:08125:31503"
"de:08125:31503:1:2","Neckarsulm Mitte","49.19267634","9.22237420","","","","Pde:08125:31503"
"de:08125:31504:1:1","Neckarsulm Nord","49.20215066","9.22875224","","","","Pde:08125:31504"
"de:08125:31504:1:2","Neckarsulm Nord","49.20145218","9.22853664","","","","Pde:08125:31504"
"de:08125:31504:2:ZG-NS","Neckarsulm Nord","49.20186892","9.22833003","","","","Pde:08125:31504"
"de:08125:33415:0:1","Elsenz Freudenhälde","49.17157274","8.84305159","0278","","","Pde:08125:33415"
"de:08125:33415:0:2","Elsenz Freudenhälde","49.17132019","8.84324024","0278","","","Pde:08125:33415"
"de:08125:3900:1:29","Gemmingen Bahnhof","49.15154124","8.98467998","","","","Pde:08125:3900"
"de:08125:3900:2:1","Gemmingen","49.15166463","8.98353912","","","","Pde:08125:3900"
"de:08125:3900:2:2","Gemmingen","49.15138261","8.98430268","","","","Pde:08125:3900"
"de:08125:4344:1:1","Weinsberg","49.14848588","9.28552577","","","","Pde:08125:4344"
"de:08125:4344:1:2","Weinsberg","49.14809219","9.28645103","","","","Pde:08125:4344"
"de:08125:4344:31","Weinsberg Bahnhof","49.14797467","9.28791528","","","","Pde:08125:4344"
"de:08125:4391:1:1","Schwaigern Ost","49.14052928","9.06913060","","","","Pde:08125:4391"
"de:08125:4402:0:1","Leingarten Kirche","49.14838011","9.10255691","","","","Pde:08125:4402"
"de:08125:4402:0:2","Leingarten Kirche","49.14824496","9.10223352","","","","Pde:08125:4402"
"de:08125:4405:1:1","Gemmingen West","49.15475505","8.97699040","","","","Pde:08125:4405"
"de:08125:4405:5:51","Gemmingen West (Ersatzhalt)","49.15302186","8.97883194","","","","Pde:08125:4405"
"de:08125:4405:5:52","Gemmingen West (Ersatzhalt)","49.15309236","8.97895771","","","","Pde:08125:4405"
"de:08125:4557:1:1","Offenau (Ersatzhalt)","49.24617594","9.16509762","","","","Pde:08125:4557"
"de:08125:4557:2:1","Offenau","49.24755403","9.16500779","","","","Pde:08125:4557"
"de:08125:4557:3:2","Offenau","49.24529628","9.16549288","","","","Pde:08125:4557"
"de:08125:4569:1:11","Gundelsheim (Neckar)","49.28284934","9.15838720","","","","Pde:08125:4569"
"de:08125:4569:2:1","Gundelsheim (Neckar)","49.28338259","9.15783923","","","","Pde:08125:4569"
"de:08125:4569:4:2","Gundelsheim (Neckar)","49.28230436","9.15819856","","","","Pde:08125:4569"
"de:08125:4570:0:1","Gundelsheim-Böttingen","49.29046081","9.14550536","","","","Pde:08125:4570"
"de:08125:4570:0:2","Gundelsheim-Böttingen","49.29050182","9.14555926","","","","Pde:08125:4570"
"de:08125:4595:1:1","Bad Wimpfen Im Tal","49.22977665","9.18694465","","","","Pde:08125:4595"
"de:08125:4615:1:1","Bad Rappenau","49.23748429","9.10093994","","","","Pde:08125:4615"
"de:08125:4615:1:2","Bad Rappenau","49.23747842","9.10116452","","","","Pde:08125:4615"
"de:08125:4615:2:1","Bad Rappenau","49.23764265","9.10119147","","","","Pde:08125:4615"
"de:08125:4615:2:3","Bad Rappenau","49.23771890","9.10077824","","","","Pde:08125:4615"
"de:08125:4615:5:2","Bad Rappenau","49.23771890","9.10117350","","","","Pde:08125:4615"
"de:08125:511","Neckarsulm AUDI Tor 6","49.20216827","9.22701849","","","",""
"de:08125:519:1:20","Bad Friedrichshall Hbf","49.23225214","9.19990734","","","","Pde:08125:519"
"de:08125:519:5:10","Bad Friedrichshall Hbf","49.23145436","9.19947614","","","","Pde:08125:519"
"de:08125:5404:1:1","Eppingen","49.13608620","8.91446765","0278","","","Pde:08125:5404"
"de:08125:5404:2:Mast1","Eppingen Bahnhof","49.13599216","8.91365917","0278","","","Pde:08125:5404"
"de:08125:5404:90:2","Eppingen","49.13623313","8.91506054","0278","","","Pde:08125:5404"
"de:08125:5404:90:3","Eppingen","49.13598041","8.91471918","0278","","","Pde:08125:5404"
"de:08125:5404:90:4","Eppingen","49.13593927","8.91471918","0278","","","Pde:08125:5404"
"de:08125:5405","Eschenau Schloss","49.13713824","9.40445373","","","","Pde:08125:5405"
"de:08125:5606:2:1","Bad Wimpfen-Hohenstadt","49.24277453","9.13924410","","","","Pde:08125:5606"
"de:08125:5606:3:2","Bad Wimpfen-Hohenstadt","49.24331994","9.13722290","","","","Pde:08125:5606"
"de:08125:5606:3:3","Bad Wimpfen-Hohenstadt","49.24319092","9.13726781","","","","Pde:08125:5606"
"de:08125:620:90:1","Neckarsulm","49.18901879","9.21956247","","","","Pde:08125:620"
"de:08125:620:90:7","Neckarsulm","49.18901879","9.21956247","","","","Pde:08125:620"
"de:08125:620:90:8","Neckarsulm","49.18898944","9.21970620","","","","Pde:08125:620"
"de:08125:620:91:2","Neckarsulm","49.18899531","9.21992180","","","","Pde:08125:620"
"de:08125:623:0:ohne","Neckarsulm AUDI Forum","49.19281137","9.22131419","","","","Pde:08125:623"
"de:08125:6232:1","Babstadt","49.24039340","9.06037202","","","","Pde:08125:6232"
"de:08125:6232:2:1","Babstadt","49.24015294","9.06032711","","","","Pde:08125:6232"
"de:08125:630:0:1","Heilbronn Kaufland","49.17131432","9.22131419","","","","Pde:08121:31501"
"de:08125:665:1:1","Elsenz Rathaus","49.17530792","8.83549676","0278","","","Pde:08125:665"
"de:08125:665:1:2","Elsenz Rathaus","49.17521396","8.83538896","0278","","","Pde:08125:665"
"de:08125:666:1:1","Elsenz Siedlung","49.18230182","8.83500268","0278","","","Pde:08125:666"
"de:08125:666:1:2","Elsenz Siedlung","49.18291249","8.83451759","0278","","","Pde:08125:666"
"de:08125:693:1:Mast1","Schwaigern Bahnhof","49.13868392","9.05755131","","","","Pde:08125:693"
"de:08125:693:1:Mast2","Schwaigern Bahnhof","49.13875445","9.05740758","","","","Pde:08125:693"
"de:08125:693:90:1","Schwaigern (Württ.)","49.13836069","9.05597926","","","","Pde:08125:693"
"de:08125:693:90:2","Schwaigern (Württ.)","49.13836656","9.05698537","","","","Pde:08125:693"
"de:08125:700:0:1","Stetten Kirche","49.12997925","9.00901534","","","","Pde:08125:700"
"de:08125:700:0:2","Stetten Kirche","49.12998513","9.00844940","","","","Pde:08125:700"
"de:08125:7401:1:1","Leingarten","49.14501898","9.12240968","","","","Pde:08125:7401"
"de:08125:7401:1:2","Leingarten","49.14511888","9.12114305","","","","Pde:08125:7401"
"de:08125:7401:2:21","Leingarten Bahnhof","49.14492496","9.12078373","","","","Pde:08125:7401"
"de:08125:7403:1:2","Leingarten Mitte","49.14588279","9.11144125","","","","Pde:08125:7403"
"de:08125:7403:2:1","Leingarten Mitte","49.14540682","9.11415416","","","","Pde:08125:7403"
"de:08125:7404:2:1","Leingarten West","49.14595918","9.10551237","","","","Pde:08125:7404"
"de:08125:7404:3:2","Leingarten West","49.14601794","9.10630288","","","","Pde:08125:7404"
"de:08125:7405:0:1","Leingarten Kiesberg","49.14823909","9.11028242","","","","Pde:08125:7405"
"de:08125:7405:0:2","Leingarten Kiesberg","49.14849763","9.11003089","","","","Pde:08125:7405"
"de:08125:8402:1:2","Leingarten Ost","49.14466053","9.12957823","","","","Pde:08125:8402"
"de:08125:8402:2:1","Leingarten Ost","49.14367917","9.13238098","","","","Pde:08125:8402"
"de:08125:883:0:>Nord","Kochendorf Bergstraße","49.21970915","9.21518768","","","","Pde:08125:883"
"de:08125:883:0:>Sued","Kochendorf Bergstraße","49.21930429","9.21504395","","","","Pde:08125:883"
"de:08125:9200:1:3","Grombach","49.22585784","8.99557654","","","","Pde:08125:9200"
"de:08125:9200:2:1","Grombach","49.22616877","8.99683418","","","","Pde:08125:9200"
"de:08125:9200:3:2","Grombach","49.22611597","8.99684317","","","","Pde:08125:9200"
"de:08125:9249","Neckarsulm","49.18891898","9.22033503","","","","Pde:08125:620"
"de:08125:945:0:1","Ellhofen Bahnhofstraße","49.14981969","9.31794596","","","","Pde:08125:945"
"de:08125:945:0:2","Ellhofen Bahnhofstraße","49.14941426","9.31822444","","","","Pde:08125:945"
"de:08126:10101:1:1","Bretzfeld Bahnhof","49.17264751","9.44014379","","","","Pde:08126:10101"
"de:08126:10101:1:2","Bretzfeld Bahnhof","49.17248894","9.43993718","","","","Pde:08126:10101"
"de:08126:10101:2:1","Bretzfeld","49.17235973","9.44020667","","","","Pde:08126:10101"
"de:08126:10101:3:2","Bretzfeld","49.17301751","9.44061990","","","","Pde:08126:10101"
"de:08126:10113:0:1","Bitzfeld Schumm","49.18977616","9.44482402","","","","Pde:08126:10113"
"de:08126:10113:0:2","Bitzfeld Schumm","49.18972919","9.44451859","","","","Pde:08126:10113"
"de:08126:10125:0:1","Scheppach Mitte","49.16326741","9.43970362","","","","Pde:08126:10125"
"de:08126:10220:1:4","Öhringen Hbf","49.20284912","9.50320553","","","","Pde:08126:10220"
"de:08126:10220:2:1","Öhringen Hbf","49.20333042","9.50209161","","","","Pde:08126:10220"
"de:08126:10220:3:3","Öhringen Hbf","49.20341846","9.50240602","","","","Pde:08126:10220"
"de:08126:19600:90:1","Scheppach","49.16202207","9.43447542","","","","Pde:08126:19600"
"de:08126:19600:91:2","Scheppach","49.16139940","9.43404423","","","","Pde:08126:19600"
"de:08126:19601:90:1","Bitzfeld","49.18747467","9.45361852","","","","Pde:08126:19601"
"de:08126:19601:91:2","Bitzfeld","49.18706956","9.45305258","","","","Pde:08126:19601"
"de:08126:19602:4:41","Öhringen Cappel S-Bahn","49.20208609","9.52508849","","","","Pde:08126:19602"
"de:08126:19602:4:42","Öhringen Cappel S-Bahn","49.20260261","9.52568137","","","","Pde:08126:19602"
"de:08126:19602:90:1","Öhringen-Cappel","49.20200979","9.52728936","","","","Pde:08126:19602"
"de:08126:19603:1:1","Öhringen West","49.20036629","9.48622737","","","","Pde:08126:19603"
"de:08126:19603:10:11","Öhringen Westbahnhof","49.20038977","9.48520329","","","","Pde:08126:19603"
"de:08126:19603:2:1","Öhringen West","49.20007867","9.48522125","","","","Pde:08126:19603"
"de:08211:1847:2:11","Baden-Baden Bahnhof","48.78965900","8.19082978","0480","","","Pde:08211:1847"
"de:08211:1847:2:12","Baden-Baden Bahnhof","48.78955247","8.19071300","0480","","","Pde:08211:1847"
"de:08211:1847:2:13","Baden-Baden Bahnhof","48.78944003","8.19060520","0480","","","Pde:08211:1847"
"de:08211:1847:2:21","Baden-Baden Bahnhof","48.78970635","8.19110826","0480","","","Pde:08211:1847"
"de:08211:1847:2:22","Baden-Baden Bahnhof","48.78964125","8.19103639","0480","","","Pde:08211:1847"
"de:08211:1847:2:23","Baden-Baden Bahnhof","48.78953472","8.19092859","0480","","","Pde:08211:1847"
"de:08211:1847:2:24","Baden-Baden Bahnhof","48.78945186","8.19084774","0480","","","Pde:08211:1847"
"de:08211:1847:2:31","Baden-Baden Bahnhof","48.78953472","8.19117114","0480","","","Pde:08211:1847"
"de:08211:1847:2:41","Baden-Baden Bahnhof","48.78945778","8.19126995","0480","","","Pde:08211:1847"
"de:08211:1847:3:1","Baden-Baden","48.79010879","8.19088368","0480","","","Pde:08211:1847"
"de:08211:1847:4:2","Baden-Baden","48.79012655","8.19083876","0480","","","Pde:08211:1847"
"de:08211:1847:4:3","Baden-Baden","48.79019757","8.19071300","0480","","","Pde:08211:1847"
"de:08211:31836:0:1","Steinbach Alte Ziegelei","48.73212950","8.16709629","0480","","","Pde:08211:31836"
"de:08211:31836:0:2","Steinbach Alte Ziegelei","48.73225393","8.16723103","0480","","","Pde:08211:31836"
"de:08211:31837:0:1","Baden-Baden Wörthstraße","48.78370481","8.20294805","0480","","","Pde:08211:31837"
"de:08211:31837:0:2","Baden-Baden Wörthstraße","48.78333191","8.20346009","0480","","","Pde:08211:31837"
"de:08211:31837:0:3","Baden-Baden Wörthstraße","48.78401260","8.20186109","0480","","","Pde:08211:31837"
"de:08211:31838:0:1","Ebersteinburg Wolfsschlucht","48.77439923","8.27665482","0480","","","Pde:08211:31838"
"de:08211:31838:0:2","Ebersteinburg Wolfsschlucht","48.77416835","8.27575650","0480","","","Pde:08211:31838"
"de:08211:31838:0:3","Ebersteinburg Wolfsschlucht","48.77460052","8.27570261","0480","","","Pde:08211:31838"
"de:08211:31839:0:1","Baden-Baden Wilhelm-Drapp-Str","48.79564208","8.19803427","0480","","","Pde:08211:31839"
"de:08211:31839:0:2","Baden-Baden Wilhelm-Drapp-Str","48.79547047","8.19806122","0480","","","Pde:08211:31839"
"de:08211:31840:0:1","Baden-Baden Werderstraße","48.75901639","8.23084972","0480","","",""
"de:08211:31841:0:1","Baden-Baden Waldseestr./Verfassungsplatz","48.76994118","8.22934954","0480","","","Pde:08211:31841"
"de:08211:31841:0:2","Baden-Baden Waldseestr./Verfassungsplatz","48.77013656","8.22829851","0480","","","Pde:08211:31841"
"de:08211:31842:0:1","Ebersteinburg Waldkapelle","48.77640612","8.28705731","0480","","","Pde:08211:31842"
"de:08211:31842:0:2","Ebersteinburg Waldkapelle","48.77624628","8.28658120","0480","","","Pde:08211:31842"
"de:08211:31843:0:1","Baden-Baden Waldcafé","48.76236217","8.26046718","0480","","","Pde:08211:31843"
"de:08211:31843:0:2","Baden-Baden Waldcafé","48.76243323","8.26055701","0480","","","Pde:08211:31843"
"de:08211:31844:0:1","Baden-Baden Voglergasse","48.74705856","8.24447717","0480","","",""
"de:08211:31845:0:1","Varnhalt Kirche","48.73533489","8.17925948","0480","","","Pde:08211:31845"
"de:08211:31845:0:2","Varnhalt Kirche","48.73510382","8.17968168","0480","","","Pde:08211:31845"
"de:08211:31846:0:1","Baden-Baden U.Prinz-Weimar-Str","48.76370042","8.25058571","0480","","","Pde:08211:31846"
"de:08211:31846:0:2","Baden-Baden U.Prinz-Weimar-Str","48.76384846","8.25124148","0480","","","Pde:08211:31846"
"de:08211:31847:0:1","Steinbach Umweger Str.","48.72864542","8.17659148","0480","","","Pde:08211:31847"
"de:08211:31847:0:2","Steinbach Umweger Str.","48.72784547","8.17603452","0480","","","Pde:08211:31847"
"de:08211:31848:0:91","Steinbach Satzweg (Ersatzhalt)","48.72670774","8.17565723","0480","","","Pde:08211:31848"
"de:08211:31848:0:92","Steinbach Satzweg (Ersatzhalt)","48.72677884","8.17546859","0480","","","Pde:08211:31848"
"de:08211:31849:0:1","Baden-Baden Tiergarten / cts-Klinik","48.74903693","8.21832721","0480","","","Pde:08211:31849"
"de:08211:31849:0:2","Baden-Baden Tiergarten / cts-Klinik","48.74912577","8.21818348","0480","","","Pde:08211:31849"
"de:08211:31849:0:3","Baden-Baden Tiergarten / cts-Klinik","48.74918500","8.21831823","0480","","","Pde:08211:31849"
"de:08211:31851:0:1","Lichtental Steinackergasse","48.74215379","8.26801303","0480","","","Pde:08211:31851"
"de:08211:31851:0:2","Lichtental Steinackergasse","48.74172134","8.26887541","0480","","","Pde:08211:31851"
"de:08211:31852:0:1","Balg Klinikum Mittelbaden","48.78642749","8.21818348","0480","","","Pde:08211:31852"
"de:08211:31852:0:2","Balg Klinikum Mittelbaden","48.78653995","8.21812958","0480","","","Pde:08211:31852"
"de:08211:31853:0:1","Baden-Baden Hauptfriedhof","48.75868476","8.25060368","0480","","",""
"de:08211:31854:0:1","Baden-Baden Stadelhoferstraße","48.75323624","8.23031972","0480","","","Pde:08211:31854"
"de:08211:31854:0:2","Baden-Baden Stadelhoferstraße","48.75338431","8.22976276","0480","","","Pde:08211:31854"
"de:08211:31855:0:1","Baden-Baden Solmsstraße","48.76014154","8.23454180","0480","","",""
"de:08211:31856:0:1","Baden-Baden Sinzheimer Str.","48.78710222","8.19440507","0480","","","Pde:08211:31856"
"de:08211:31856:0:2","Baden-Baden Sinzheimer Str.","48.78693650","8.19447694","0480","","","Pde:08211:31856"
"de:08211:31856:0:3","Baden-Baden Sinzheimer Str.","48.78703712","8.19389303","0480","","","Pde:08211:31856"
"de:08211:31856:0:4","Baden-Baden Sinzheimer Str.","48.78704895","8.19377625","0480","","","Pde:08211:31856"
"de:08211:31864:0:1","Baden-Baden Schirmhofweg","48.75030446","8.22172284","0480","","","Pde:08211:31864"
"de:08211:31864:0:2","Baden-Baden Schirmhofweg","48.75093821","8.22269302","0480","","","Pde:08211:31864"
"de:08211:31866:0:1","Lichtental Sauersbosch","48.73986118","8.27644821","0480","","","Pde:08211:31866"
"de:08211:31866:0:2","Lichtental Sauersbosch","48.74008037","8.27543311","0480","","","Pde:08211:31866"
"de:08211:31867:0:1","Sandweier Südring","48.80505021","8.18827856","0480","","","Pde:08211:31867"
"de:08211:31867:0:2","Sandweier Südring","48.80500880","8.18790127","0480","","","Pde:08211:31867"
"de:08211:31868:0:1","Sandweier Nord","48.81345687","8.19551000","0480","","","Pde:08211:31868"
"de:08211:31868:0:2","Sandweier Nord","48.81343321","8.19531237","0480","","","Pde:08211:31868"
"de:08211:31869:0:1","Sandweier Mühlstraße","48.81229742","8.19845647","0480","","","Pde:08211:31869"
"de:08211:31869:0:2","Sandweier Mühlstraße","48.81236249","8.19831274","0480","","","Pde:08211:31869"
"de:08211:31870:0:1","Sandweier Mitte","48.80810896","8.19544712","0480","","","Pde:08211:31870"
"de:08211:31870:0:2","Sandweier Mitte","48.80819770","8.19530339","0480","","","Pde:08211:31870"
"de:08211:31871:0:1","Sandweier Autobahnkirche","48.80930401","8.17487570","0480","","","Pde:08211:31871"
"de:08211:31871:0:2","Sandweier Autobahnkirche","48.80879523","8.17610639","0480","","","Pde:08211:31871"
"de:08211:31873:1:1","Baden-Baden Rheumazentrum","48.76339843","8.24711821","0480","","",""
"de:08211:31880:0:1","Baden-Baden Quettigstaffeln","48.75276835","8.23549401","0480","","",""
"de:08211:31882:0:1","Baden-Baden Obere Schußbach","48.78703712","8.21460818","0480","","","Pde:08211:31882"
"de:08211:31882:0:2","Baden-Baden Obere Schußbach","48.78720284","8.21441055","0480","","","Pde:08211:31882"
"de:08211:31883:0:1","Baden-Baden Ob.Prinz-Weimar-S","48.76070411","8.24979519","0480","","","Pde:08211:31883"
"de:08211:31883:0:2","Baden-Baden Ob.Prinz-Weimar-S","48.76062121","8.24939095","0480","","","Pde:08211:31883"
"de:08211:31885:0:1","Baden-Baden Obere Breite","48.78120100","8.18853009","0480","","",""
"de:08211:31886:0:1","Baden-Baden Kaiser-Wilhelm-S.","48.75581844","8.23232296","0480","","",""
"de:08211:31887:0:1","Oberbeuern","48.73777582","8.28578170","0480","","",""
"de:08211:31888:0:1","Baden-Baden Neues Schloss","48.76479587","8.24133306","0480","","",""
"de:08211:31889:0:1","BAD Moltkestr./Rosengarten","48.75771354","8.23030175","0480","","",""
"de:08211:31890:0:1","Baden-Baden Merkurwald","48.76285366","8.26454553","0480","","",""
"de:08211:31891:0:1","Baden-Baden Maximilianstraße","48.75192732","8.24873518","0480","","",""
"de:08211:31893:0:2","BAD Maximilianstr./Falkenstr.","48.75177333","8.24872620","0480","","",""
"de:08211:31895:0:1","Baden-Baden Marktplatz/Rath.","48.76294840","8.24056051","0480","","",""
"de:08211:31896:0:1","Baden-Baden Markgrafenplatz","48.75893940","8.24704635","0480","","","Pde:08211:31896"
"de:08211:31896:0:2","Baden-Baden Markgrafenplatz","48.75901047","8.24691160","0480","","","Pde:08211:31896"
"de:08211:31896:0:3","Baden-Baden Markgrafenplatz","48.75872621","8.24722601","0480","","","Pde:08211:31896"
"de:08211:31897:0:1","Baden-Baden Mariahalden","48.74926200","8.23377823","0480","","",""
"de:08211:31898:0:1","Malschbach","48.72238768","8.24228528","0480","","",""
"de:08211:31900:0:1","BAD Lilienmattstr./Kl. Annaberg","48.76502680","8.25277760","0480","","","Pde:08211:31900"
"de:08211:31900:0:2","BAD Lilienmattstr./Kl. Annaberg","48.76555971","8.25309201","0480","","","Pde:08211:31900"
"de:08211:31901:0:1","BAD Lichtentaler All./Museen","48.75474056","8.23868303","0480","","","Pde:08211:31901"
"de:08211:31901:0:2","BAD Lichtentaler All./Museen","48.75481756","8.23844947","0480","","","Pde:08211:31901"
"de:08211:31902:0:1","Lichtental","48.74259216","8.26408739","0480","","","Pde:08211:31902"
"de:08211:31902:0:2","Lichtental","48.74246183","8.26429400","0480","","","Pde:08211:31902"
"de:08211:31903:0:1","Lichtental Lerchenbergweg","48.73913250","8.28125419","0480","","","Pde:08211:31903"
"de:08211:31903:0:2","Lichtental Lerchenbergweg","48.73901401","8.28126318","0480","","","Pde:08211:31903"
"de:08211:31904:0:1","Baden-Baden Leopoldstraße","48.76587945","8.24339919","0480","","",""
"de:08211:31905:0:1","Baden-Baden Kurfürstenstraße","48.76158052","8.24810636","0480","","","Pde:08211:31905"
"de:08211:31905:0:2","Baden-Baden Kurfürstenstraße","48.76130220","8.24810636","0480","","","Pde:08211:31905"
"de:08211:31906:0:1","Baden-Baden Kuppenheimer Str.","48.79194934","8.19452185","0480","","","Pde:08211:31906"
"de:08211:31906:0:2","Baden-Baden Kuppenheimer Str.","48.79253523","8.19625560","0480","","","Pde:08211:31906"
"de:08211:31906:0:3","Baden-Baden Kuppenheimer Str.","48.79242279","8.19480931","0480","","","Pde:08211:31906"
"de:08211:31907:0:1","Baden-Baden Kronprinzenstr.","48.75890979","8.23583537","0480","","",""
"de:08211:31908:0:1","Lichtental Klosterplatz","48.74635368","8.25598459","0480","","","Pde:08211:31908"
"de:08211:31908:0:2","Lichtental Klosterplatz","48.74631814","8.25582289","0480","","","Pde:08211:31908"
"de:08211:31909:0:1","BAD Klostergut Fremersberg","48.74449369","8.19742341","0480","","","Pde:08211:31909"
"de:08211:31909:0:2","BAD Klostergut Fremersberg","48.74464770","8.19728866","0480","","","Pde:08211:31909"
"de:08211:31910:0:1","Baden-Baden Klinik Dr. Dengler","48.76374187","8.23509875","0480","","",""
"de:08211:31911:0:1","Baden-Baden Kettenbrücke","48.75039922","8.24473768","0480","","","Pde:08211:31911"
"de:08211:31911:0:2","Baden-Baden Kettenbrücke","48.75109221","8.24489937","0480","","","Pde:08211:31911"
"de:08211:31920:0:1","Lichtental Höllhäuserweg","48.73916212","8.25788901","0480","","","Pde:08211:31920"
"de:08211:31920:0:2","Lichtental Höllhäuserweg","48.73872964","8.25743986","0480","","","Pde:08211:31920"
"de:08211:31921:1:1","Baden-Baden Hubertusstraße","48.78048476","8.20376552","0480","","","Pde:08211:31921"
"de:08211:31921:1:4","Baden-Baden Hubertusstraße","48.78036045","8.20381942","0480","","","Pde:08211:31921"
"de:08211:31922:0:1","Baden-Baden Otto-Flake-Str.","48.76615182","8.23082277","0480","","",""
"de:08211:31923:0:1","Steinbach Hohlgasse","48.73042304","8.17115667","0480","","","Pde:08211:31923"
"de:08211:31923:0:2","Steinbach Hohlgasse","48.73019788","8.17143515","0480","","","Pde:08211:31923"
"de:08211:31924:0:1","Baden-Baden Hochstraße","48.76443467","8.23191872","0480","","",""
"de:08211:31925:1:2","Baden-Baden Charles-de-Gaulle-Platz","48.78507801","8.19224912","0480","","","Pde:08211:31925"
"de:08211:31925:2:3","Baden-Baden Charles-de-Gaulle-Platz","48.78563438","8.19190776","0480","","","Pde:08211:31925"
"de:08211:31925:2:4","Baden-Baden Charles-de-Gaulle-Platz","48.78494779","8.19088368","0480","","","Pde:08211:31925"
"de:08211:31926:0:1","Geroldsau Heschmattweg","48.72958757","8.25385558","0480","","","Pde:08211:31926"
"de:08211:31926:0:2","Geroldsau Heschmattweg","48.73002605","8.25397236","0480","","","Pde:08211:31926"
"de:08211:31927:0:1","Baden-Baden Herrengut","48.76679129","8.24237511","0480","","",""
"de:08211:31928:0:1","Baden-Baden Robert-Koch-Straße","48.75297564","8.24395614","0480","","",""
"de:08211:31929:0:1","Baden-Baden Herchenbachstraße","48.74974177","8.23766794","0480","","",""
"de:08211:31930:0:2","Haueneberstein Siemensstraße","48.81096046","8.21806670","0480","","","Pde:08211:31930"
"de:08211:31930:0:3","Haueneberstein Siemensstraße","48.81057593","8.21816551","0480","","","Pde:08211:31930"
"de:08211:31931:0:1","Haueneberstein Industriegebiet","48.81207854","8.21114069","0480","","",""
"de:08211:31932:0:1","Baden-Baden Hans-Thoma-Str.","48.74895400","8.24080306","0480","","",""
"de:08211:31933:0:1","Baden-Baden H.-Bredow-Str/SWR","48.75226492","8.22560356","0480","","","Pde:08211:31933"
"de:08211:31933:0:2","Baden-Baden H.-Bredow-Str/SWR","48.75241299","8.22551373","0480","","","Pde:08211:31933"
"de:08211:31934:0:1","Baden-Baden Große Dollenstr.","48.77390194","8.22179471","0480","","","Pde:08211:31934"
"de:08211:31934:0:2","Baden-Baden Große Dollenstr.","48.77404995","8.22340269","0480","","","Pde:08211:31934"
"de:08211:31935:0:1","Baden-Baden Golfplatz","48.74692233","8.21167069","0480","","","Pde:08211:31935"
"de:08211:31935:0:2","Baden-Baden Golfplatz","48.74703487","8.21157188","0480","","","Pde:08211:31935"
"de:08211:31936:0:1","Balg Gaßeck","48.78975370","8.22750799","0480","","","Pde:08211:31936"
"de:08211:31936:0:2","Balg Gaßeck","48.79017390","8.22778647","0480","","","Pde:08211:31936"
"de:08211:31937:0:1","Baden-Baden Gausplatz","48.75482348","8.24224036","0480","","","Pde:08211:31937"
"de:08211:31938:0:1","Varnhalt Gallenbach","48.74034696","8.18037339","0480","","","Pde:08211:31938"
"de:08211:31938:0:2","Varnhalt Gallenbach","48.73954127","8.17968168","0480","","","Pde:08211:31938"
"de:08211:31940:1:1","Baden-Baden Friedrichshöhe","48.76118377","8.25302913","0480","","","Pde:08211:31940"
"de:08211:31940:2:3","Baden-Baden Friedrichshöhe","48.76213715","8.25323574","0480","","","Pde:08211:31940"
"de:08211:31940:2:4","Baden-Baden Friedrichshöhe","48.76222598","8.25266082","0480","","","Pde:08211:31940"
"de:08211:31944:0:1","Baden-Baden Falkenstraße","48.75304079","8.24651634","0480","","",""
"de:08211:31945:0:1","Baden-Baden Entenstallhütte","48.74634776","8.20674792","0480","","","Pde:08211:31945"
"de:08211:31945:0:2","Baden-Baden Entenstallhütte","48.74644846","8.20664013","0480","","","Pde:08211:31945"
"de:08211:31946:0:1","Baden-Baden Engel/Höhenblick","48.76730642","8.23841354","0480","","","Pde:08211:31946"
"de:08211:31946:0:2","Baden-Baden Engel/Höhenblick","48.76682090","8.23906033","0480","","","Pde:08211:31946"
"de:08211:31948:0:1","Lichtental Eckerlestraße","48.74891254","8.25369388","0480","","","Pde:08211:31948"
"de:08211:31948:0:2","Lichtental Eckerlestraße","48.74857492","8.25402626","0480","","","Pde:08211:31948"
"de:08211:31949:0:1","Baden-Baden Ebertplatz","48.77213177","8.22552271","0480","","","Pde:08211:31949"
"de:08211:31949:0:2","Baden-Baden Ebertplatz","48.77158118","8.22602577","0480","","","Pde:08211:31949"
"de:08211:31950:0:1","Ebersteinburg Klinik","48.77473668","8.27334004","0480","","","Pde:08211:31950"
"de:08211:31950:0:2","Ebersteinburg Klinik","48.77483732","8.27302563","0480","","","Pde:08211:31950"
"de:08211:31952:0:1","Ebersteinburg Kapelle","48.77792751","8.27122900","0480","","",""
"de:08211:31953:0:1","Baden-Baden Dreieichenkapelle","48.77805182","8.21778822","0480","","","Pde:08211:31953"
"de:08211:31953:0:2","Baden-Baden Dreieichenkapelle","48.77801038","8.21750076","0480","","","Pde:08211:31953"
"de:08211:31954:0:1","Baden-Baden Bäderviertel","48.76237994","8.24242002","0480","","",""
"de:08211:31956:0:1","Neuweier Buchgasse","48.72554627","8.17329466","0480","","","Pde:08211:31956"
"de:08211:31956:0:2","Neuweier Buchgasse","48.72536257","8.17342941","0480","","","Pde:08211:31956"
"de:08211:31956:0:91","Neuweier Buchgasse","48.72530924","8.17376179","0480","","","Pde:08211:31956"
"de:08211:31956:0:92","Neuweier Buchgasse","48.72549294","8.17355517","0480","","","Pde:08211:31956"
"de:08211:31957:0:1","Baden-Baden Oskar-Schlemmer-Platz","48.75377520","8.23413756","0480","","","Pde:08211:31957"
"de:08211:31957:0:2","Baden-Baden Oskar-Schlemmer-Platz","48.75386996","8.23394891","0480","","","Pde:08211:31957"
"de:08211:31958:0:1","Baden-Baden Birkenbuckel","48.75168449","8.23594317","0480","","",""
"de:08211:31959:0:1","Lichtental Bildeiche","48.74159101","8.27113916","0480","","","Pde:08211:31959"
"de:08211:31959:0:2","Lichtental Bildeiche","48.74139552","8.27187578","0480","","","Pde:08211:31959"
"de:08211:31960:0:1","Baden-Baden Bertholdplatz","48.75522028","8.24359682","0480","","","Pde:08211:31960"
"de:08211:31960:0:2","Baden-Baden Bertholdplatz","48.75549863","8.24353394","0480","","","Pde:08211:31960"
"de:08211:31962:0:1","Balg Baumackerstraße","48.78750469","8.22176776","0480","","","Pde:08211:31962"
"de:08211:31962:0:2","Balg Baumackerstraße","48.78761714","8.22183064","0480","","","Pde:08211:31962"
"de:08211:31963:0:1","Baden-Baden Bauernfeldstraße","48.78157392","8.19986683","0480","","","Pde:08211:31963"
"de:08211:31963:0:2","Baden-Baden Bauernfeldstraße","48.78144369","8.19990276","0480","","","Pde:08211:31963"
"de:08211:31964:0:1","Balg Kirche","48.78864696","8.22572933","0480","","","Pde:08211:31964"
"de:08211:31964:0:2","Balg Kirche","48.78854635","8.22540593","0480","","","Pde:08211:31964"
"de:08211:31965:0:1","Balg Friedhof","48.79052899","8.23093955","0480","","",""
"de:08211:31967:0:1","Lichtental Aubrücke","48.75023338","8.25140318","0480","","","Pde:08211:31967"
"de:08211:31967:0:2","Lichtental Aubrücke","48.74974769","8.25200505","0480","","","Pde:08211:31967"
"de:08211:31968:0:1","Varnhalt Am Kirchberg","48.73749737","8.17787607","0480","","","Pde:08211:31968"
"de:08211:31968:0:2","Varnhalt Am Kirchberg","48.73744997","8.17768742","0480","","","Pde:08211:31968"
"de:08211:32170:0:1","Geroldsau Geroldsauer Mühle","48.73501495","8.25546356","0480","","","Pde:08211:32170"
"de:08211:32170:0:2","Geroldsau Geroldsauer Mühle","48.73505642","8.25524797","0480","","","Pde:08211:32170"
"de:08211:32209:1:1","BAD Hindenburgplatz/Stadtbib.","48.76421558","8.23703013","0480","","","Pde:08211:32209"
"de:08211:32209:1:2","BAD Hindenburgplatz/Stadtbib.","48.76393728","8.23685047","0480","","","Pde:08211:32209"
"de:08211:32254:2:4","BAD Hindenburgplatz (Kaiserallee)","48.76393728","8.23631148","0480","","","Pde:08211:32254"
"de:08211:32356:0:1","Steinbach Vimbucher Str.","48.73102742","8.15105238","0480","","","Pde:08211:32356"
"de:08211:32356:0:2","Steinbach Vimbucher Str.","48.73100965","8.15089068","0480","","","Pde:08211:32356"
"de:08211:32357:0:1","Steinbach Schule","48.73004975","8.16318862","0480","","","Pde:08211:32357"
"de:08211:32357:0:2","Steinbach Schule","48.72991939","8.16293709","0480","","","Pde:08211:32357"
"de:08211:32360:0:1","Steinbach Steinbacher Str./Postplatz","48.72785732","8.15900247","0480","","","Pde:08211:32360"
"de:08211:32360:0:2","Steinbach Steinbacher Str./Postplatz","48.72798176","8.15925400","0480","","","Pde:08211:32360"
"de:08211:32361:0:1","Steinbach Yburgstraße/Postplatz","48.72817730","8.15992773","0480","","",""
"de:08211:32362:0:1","Steinbach Alte Landstr.","48.73281681","8.16493135","0480","","","Pde:08211:32362"
"de:08211:32362:0:2","Steinbach Alte Landstr.","48.73276941","8.16476965","0480","","","Pde:08211:32362"
"de:08211:32363:0:1","Neuweier Winzergenossenschaft","48.72369736","8.17816353","0480","","","Pde:08211:32363"
"de:08211:32363:0:2","Neuweier Winzergenossenschaft","48.72355514","8.17818150","0480","","","Pde:08211:32363"
"de:08211:32364:0:1","Neuweier Schneckenbach","48.71751013","8.18072373","0480","","","Pde:08211:32364"
"de:08211:32364:0:2","Neuweier Schneckenbach","48.71746864","8.18049017","0480","","","Pde:08211:32364"
"de:08211:32365:0:1","Steinbach Poststraße/Postplatz","48.72883503","8.15796042","0480","","",""
"de:08211:32366:0:1","Neuweier Kirche","48.72149281","8.18599684","0480","","","Pde:08211:32366"
"de:08211:32366:0:2","Neuweier Kirche","48.72152836","8.18588006","0480","","","Pde:08211:32366"
"de:08211:32368:0:1","Steinbach Grabenstraße/Postplatz","48.72868097","8.15957739","0480","","","Pde:08211:32368"
"de:08211:32368:0:92","Steinbach Grabenstraße/Postplatz","48.72866319","8.15973909","0480","","","Pde:08211:32368"
"de:08211:32369:0:91","Steinbach Yburgstr./Häfnergasse","48.72810619","8.16308082","0480","","",""
"de:08211:32370:1:1","Lichtental Brahmsplatz","48.74432783","8.25943412","0480","","","Pde:08211:32370"
"de:08211:32370:1:2","Lichtental Brahmsplatz","48.74456477","8.25936225","0480","","","Pde:08211:32370"
"de:08211:32371:0:1","Haueneberstein Waldstraße","48.80822728","8.22463338","0480","","","Pde:08211:32371"
"de:08211:32371:0:2","Haueneberstein Waldstraße","48.80887214","8.22511847","0480","","","Pde:08211:32371"
"de:08211:32373:0:1","Haueneberstein Bahnhofstraße","48.80763566","8.22246844","0480","","","Pde:08211:32373"
"de:08211:32373:0:2","Haueneberstein Bahnhofstraße","48.80770074","8.22248641","0480","","","Pde:08211:32373"
"de:08211:32374:0:1","Geroldsau Schule","48.72734179","8.24936400","0480","","","Pde:08211:32374"
"de:08211:32374:0:2","Geroldsau Schule","48.72778028","8.24946282","0480","","","Pde:08211:32374"
"de:08211:32375:0:1","Geroldsau Schmiegrankweg","48.73213543","8.25733206","0480","","","Pde:08211:32375"
"de:08211:32375:0:2","Geroldsau Schmiegrankweg","48.73185695","8.25682900","0480","","","Pde:08211:32375"
"de:08211:32376:0:1","Geroldsau Malschbacher Str.","48.72457442","8.24752246","0480","","","Pde:08211:32376"
"de:08211:32376:0:2","Geroldsau Malschbacher Str.","48.72508405","8.24737872","0480","","","Pde:08211:32376"
"de:08211:32379:0:1","Baden-Baden Schweigrother Platz","48.78171006","8.20956863","0480","","","Pde:08211:32379"
"de:08211:32379:0:2","Baden-Baden Schweigrother Platz","48.78155024","8.20945185","0480","","","Pde:08211:32379"
"de:08211:32379:0:3","Baden-Baden Schweigrother Platz","48.78171006","8.21014356","0480","","","Pde:08211:32379"
"de:08211:32380:1:1","Baden-Baden Rotenbachtalstraße","48.76431032","8.24984909","0480","","","Pde:08211:32380"
"de:08211:32380:1:2","Baden-Baden Rotenbachtalstraße","48.76451165","8.25002875","0480","","","Pde:08211:32380"
"de:08211:32380:2:3","Baden-Baden Rotenbachtalstraße","48.76465376","8.25012757","0480","","","Pde:08211:32380"
"de:08211:32380:2:4","Baden-Baden Rotenbachtalstraße","48.76469521","8.24998384","0480","","","Pde:08211:32380"
"de:08211:32384:0:1","Baden-Baden Königsberger Str.","48.78152656","8.18721855","0480","","","Pde:08211:32384"
"de:08211:32384:0:2","Baden-Baden Königsberger Str.","48.78137266","8.18725448","0480","","","Pde:08211:32384"
"de:08211:32385:0:1","Baden-Baden Kleine Dollenstr.","48.77626996","8.21953993","0480","","","Pde:08211:32385"
"de:08211:32385:0:2","Baden-Baden Kleine Dollenstr.","48.77595620","8.22042028","0480","","","Pde:08211:32385"
"de:08211:32387:0:1","Baden-Baden Caracalla Therme","48.76250429","8.24433344","0480","","","Pde:08211:32387"
"de:08211:32387:0:2","Baden-Baden Caracalla Therme","48.76256351","8.24411784","0480","","","Pde:08211:32387"
"de:08211:32388:1:1","BAD Augustapl. / Museum Burda","48.75816362","8.24145883","0480","","","Pde:08211:32388"
"de:08211:32388:1:2","BAD Augustapl. / Museum Burda","48.75831167","8.24118035","0480","","","Pde:08211:32388"
"de:08211:32388:1:3","BAD Augustaplatz / Museum Burda","48.75857816","8.24107255","0480","","","Pde:08211:32388"
"de:08211:32388:2:4","BAD Augustaplatz / Museum Burda","48.75820507","8.24107255","0480","","","Pde:08211:32388"
"de:08211:32388:2:5","BAD Augustapl. / Museum Burda","48.75831167","8.24096475","0480","","","Pde:08211:32388"
"de:08211:32389:0:1","Baden-Baden Festspielhaus","48.76763799","8.23277212","0480","","","Pde:08211:32389"
"de:08211:32389:0:2","Baden-Baden Festspielhaus","48.76772089","8.23244872","0480","","","Pde:08211:32389"
"de:08211:32392:1:11","BAD Leopoldsplatz (Luisenstraße)","48.76168119","8.23862015","0480","","","Pde:08211:32392"
"de:08211:32392:1:12","BAD Leopoldsplatz (Luisenstraße)","48.76125483","8.23942863","0480","","","Pde:08211:32392"
"de:08211:32393:1:21","Baden-Baden Leopoldspl. (Sophienstr.)","48.76114232","8.24047966","0480","","","Pde:08211:32393"
"de:08211:32393:1:22","Baden-Baden Leopoldspl. (Sophienstr.)","48.76124891","8.24013830","0480","","","Pde:08211:32393"
"de:08211:32549:0:1","BAD Altenpflegeheim Schafberg","48.74971216","8.26563249","0480","","",""
"de:08211:32832:0:1","Varnhalt Im Lindenbosch","48.73743812","8.17738200","0480","","","Pde:08211:32832"
"de:08211:32832:0:2","Varnhalt Im Lindenbosch","48.73607547","8.17529791","0480","","","Pde:08211:32832"
"de:08211:33088:1:1","Baden-Baden Pariser Platz Cité","48.77902856","8.20133108","0480","","","Pde:08211:33088"
"de:08211:33089:1:1","Baden-Baden Campus Cité / VHS","48.77999344","8.19555492","0480","","","Pde:08211:33089"
"de:08211:33090:1:1","Baden-Baden Shopping Cité","48.78357459","8.19237488","0480","","",""
"de:08211:33091:0:1","Baden-Baden Gewerbepark Cité","48.78407771","8.19524051","0480","","","Pde:08211:33091"
"de:08211:33091:0:2","Baden-Baden Gewerbepark Cité","48.78405995","8.19505186","0480","","","Pde:08211:33091"
"de:08211:33108:1:1","Baden-Baden Kino Cité / P+R","48.78118916","8.19464762","0480","","","Pde:08211:33108"
"de:08211:33108:1:2","Baden-Baden Kino Cité / P+R","48.78115365","8.19448592","0480","","","Pde:08211:33108"
"de:08211:33109:0:1","Baden-Baden Bretagne","48.77939557","8.19065011","0480","","","Pde:08211:33109"
"de:08211:33109:0:2","Baden-Baden Bretagne","48.77911735","8.19117114","0480","","","Pde:08211:33109"
"de:08211:33151:1:1","Haueneberstein R.-Bosch-Straße","48.81222643","8.21510226","0480","","","Pde:08211:33151"
"de:08211:33151:2:2","Haueneberstein R.-Bosch-Straße","48.81152246","8.21428479","0480","","","Pde:08211:33151"
"de:08211:34755:0:1","Baden-Baden Zimmerplatz","48.71550089","8.22735528","0480","","","Pde:08211:34755"
"de:08211:34755:0:2","Baden-Baden Zimmerplatz","48.71559573","8.22701392","0480","","","Pde:08211:34755"
"de:08211:34756:0:1","Baden-Baden Schwanenwasen","48.68793840","8.23042752","0480","","","Pde:08211:34756"
"de:08211:34756:0:2","Baden-Baden Schwanenwasen","48.68795026","8.23025684","0480","","","Pde:08211:34756"
"de:08211:34757:0:1","Baden-Baden Dr. Fecht Waldheim","48.67924974","8.23407468","0480","","","Pde:08211:34757"
"de:08211:34757:0:2","Baden-Baden Dr. Fecht Waldheim","48.67815836","8.23416451","0480","","","Pde:08211:34757"
"de:08211:34769:0:1","Baden-Baden Ooswinkel","48.77724082","8.21264087","0480","","","Pde:08211:34769"
"de:08211:34769:0:2","Baden-Baden Ooswinkel","48.77712834","8.21257799","0480","","","Pde:08211:34769"
"de:08211:34770:0:1","Baden-Baden Im Metzenacker","48.77972707","8.20830201","0480","","","Pde:08211:34770"
"de:08211:34770:0:2","Baden-Baden Im Metzenacker","48.77960276","8.20830201","0480","","","Pde:08211:34770"
"de:08211:34771:0:1","Baden-Baden Schwarzwaldstraße","48.78016511","8.20552622","0480","","","Pde:08211:34771"
"de:08211:34771:0:2","Baden-Baden Schwarzwaldstraße","48.78030126","8.20543638","0480","","","Pde:08211:34771"
"de:08211:34772:0:1","Baden-Baden Schußbachstraße","48.78648076","8.20848167","0480","","","Pde:08211:34772"
"de:08211:34772:0:2","Baden-Baden Schußbachstraße","48.78662281","8.20870625","0480","","","Pde:08211:34772"
"de:08211:34774:0:1","Baden-Baden Kurhaus","48.75938355","8.23744336","0480","","",""
"de:08211:34791:0:2","Baden-Baden Römerweg","48.78416650","8.20285822","0480","","",""
"de:08211:35110:1:1","Baden-Baden Haueneberstein","48.81197797","8.20912846","0480","","","Pde:08211:35110"
"de:08211:35110:2:2","Baden-Baden Haueneberstein","48.81174134","8.20891286","0480","","","Pde:08211:35110"
"de:08211:35113:1:1","Baden-Baden Rebland","48.73391886","8.14667758","0480","","","Pde:08211:35113"
"de:08211:35113:2:2","Baden-Baden Rebland","48.73380628","8.14653385","0480","","","Pde:08211:35113"
"de:08211:35113:5:51","Steinbach Bahnhof Rebland","48.73512752","8.14551875","0480","","","Pde:08211:35113"
"de:08211:35113:5:52","Steinbach Bahnhof Rebland","48.73501495","8.14537502","0480","","","Pde:08211:35113"
"de:08212:10:1:1","Durlach Untermühlstraße","49.00207214","8.45497040","0100","","","Pde:08212:10"
"de:08212:10:1:3","Durlach Untermühlstraße","49.00210161","8.45481769","0100","","","Pde:08212:10"
"de:08212:10:2:2","Durlach Untermühlstraße","49.00191302","8.45577889","0100","","","Pde:08212:10"
"de:08212:10:2:4","Durlach Untermühlstraße","49.00187766","8.45599448","0100","","","Pde:08212:10"
"de:08212:10:21:21","Durlach Untermühlstraße","49.00223126","8.45485362","0100","","","Pde:08212:10"
"de:08212:10:22:22","Durlach Untermühlstraße","49.00174801","8.45624601","0100","","","Pde:08212:10"
"de:08212:10000:0:1","Karlsruhe Pappelallee","48.99509996","8.33513514","0100","","",""
"de:08212:10001:1:1","Karlsruhe Falterweg","48.99703317","8.33643770","0100","","",""
"de:08212:1001:1:1","KA Durlacher Tor/KIT-Campus Süd (U)","49.00900210","8.41669319","0100","","","Pde:08212:1001"
"de:08212:1001:2:2","KA Durlacher Tor/KIT-Campus Süd (U)","49.00884300","8.41760049","0100","","","Pde:08212:1001"
"de:08212:1001:91:1","KA Durlacher Tor/KIT-Campus Süd (U)","49.00901978","8.41653149","0100","","","Pde:08212:1001"
"de:08212:1001:92:2","KA Durlacher Tor/KIT-Campus Süd (U)","49.00882533","8.41773524","0100","","","Pde:08212:1001"
"de:08212:1002:1:1","Karlsruhe Kronenplatz (U)","49.00935564","8.40998277","0100","","","Pde:08212:1002"
"de:08212:1002:2:2","Karlsruhe Kronenplatz (U)","49.00928493","8.41089906","0100","","","Pde:08212:1002"
"de:08212:1002:91:1","Karlsruhe Kronenplatz (U)","49.00936154","8.40979413","0100","","","Pde:08212:1002"
"de:08212:1002:92:2","Karlsruhe Kronenplatz (U)","49.00928493","8.41107872","0100","","","Pde:08212:1002"
"de:08212:1003:1:1","KA Marktplatz (Kaiserstraße U)","49.00970918","8.40167336","0100","","","Pde:08212:1003"
"de:08212:1003:2:2","KA Marktplatz (Kaiserstraße U)","49.00961491","8.40295795","0100","","","Pde:08212:1003"
"de:08212:1003:91:1","KA Marktplatz (Kaiserstraße U)","49.00972097","8.40153861","0100","","","Pde:08212:1003"
"de:08212:1003:92:2","KA Marktplatz (Kaiserstraße U)","49.00960901","8.40315558","0100","","","Pde:08212:1003"
"de:08212:1004:1:1","KA Europaplatz (U)","49.01006861","8.39371428","0100","","","Pde:08212:1004"
"de:08212:1004:2:2","KA Europaplatz (U)","49.00999791","8.39463955","0100","","","Pde:08212:1004"
"de:08212:1004:91:1","KA Europaplatz (U)","49.01007451","8.39357954","0100","","","Pde:08212:1004"
"de:08212:1004:92:2","KA Europaplatz (U)","49.00999202","8.39475633","0100","","","Pde:08212:1004"
"de:08212:101:1:1","Karlsruhe Starckstraße","49.01640242","8.35288585","0100","","","Pde:08212:101"
"de:08212:101:2:2","Karlsruhe Starckstraße","49.01603125","8.35284992","0100","","","Pde:08212:101"
"de:08212:101:21:21","Karlsruhe Starckstraße","49.01749234","8.35303857","0100","","","Pde:08212:101"
"de:08212:101:22:22","Karlsruhe Starckstraße","49.01705638","8.35319128","0100","","","Pde:08212:101"
"de:08212:101:91:1b","Karlsruhe Starckstraße","49.01716242","8.35286789","0100","","","Pde:08212:101"
"de:08212:101:92:2b","Karlsruhe Starckstraße","49.01648490","8.35284094","0100","","","Pde:08212:101"
"de:08212:1011:3:3","KA Marktplatz (Pyramide U)","49.00830090","8.40376643","0100","","","Pde:08212:1011"
"de:08212:1011:4:4","KA Marktplatz (Pyramide U)","49.00900799","8.40375745","0100","","","Pde:08212:1011"
"de:08212:1011:93:3","KA Marktplatz (Pyramide U)","49.00821251","8.40376643","0100","","","Pde:08212:1011"
"de:08212:1011:94:4","KA Marktplatz (Pyramide U)","49.00911995","8.40376643","0100","","","Pde:08212:1011"
"de:08212:1011:95:5","KA Marktplatz (Pyramide U)","49.00911995","8.40390118","0100","","","Pde:08212:1011"
"de:08212:1012:3:3","KA Ettlinger Tor/Staatstheater (U)","49.00507760","8.40343406","0100","","","Pde:08212:1012"
"de:08212:1012:4:4","KA Ettlinger Tor/Staatstheater (U)","49.00577295","8.40355084","0100","","","Pde:08212:1012"
"de:08212:1012:93:3","KA Ettlinger Tor/Staatstheater (U)","49.00495974","8.40341609","0100","","","Pde:08212:1012"
"de:08212:1012:94:4","KA Ettlinger Tor/Staatstheater (U)","49.00592616","8.40356880","0100","","","Pde:08212:1012"
"de:08212:1013:3:3","Karlsruhe Kongresszentrum (U)","49.00217232","8.40311066","0100","","","Pde:08212:1013"
"de:08212:1013:4:4","Karlsruhe Kongresszentrum (U)","49.00288540","8.40321846","0100","","","Pde:08212:1013"
"de:08212:1013:93:3","Karlsruhe Kongresszentrum (U)","49.00206625","8.40309270","0100","","","Pde:08212:1013"
"de:08212:1013:94:4","Karlsruhe Kongresszentrum (U)","49.00300326","8.40322744","0100","","","Pde:08212:1013"
"de:08212:102:0:1","Karlsruhe Vogesenbrücke","49.00910816","8.35556283","0100","","","Pde:08212:102"
"de:08212:103:1:1","Karlsruhe Mühlburg West","49.02047920","8.35056820","0100","","","Pde:08212:103"
"de:08212:103:2:2","Karlsruhe Mühlburg West","49.02016697","8.35084668","0100","","","Pde:08212:103"
"de:08212:103:21:21","Karlsruhe Mühlburg West","49.02044974","8.35078380","0100","","","Pde:08212:103"
"de:08212:103:22:22","Karlsruhe Mühlburg West","49.02042618","8.35072990","0100","","","Pde:08212:103"
"de:08212:104:1:1","Knielingen Siemens","49.02520949","8.34633714","0100","","","Pde:08212:104"
"de:08212:104:2:2","Knielingen Siemens","49.02524483","8.34625629","0100","","","Pde:08212:104"
"de:08212:104:21:21","Knielingen Siemens","49.02639347","8.34584306","0100","","","Pde:08212:104"
"de:08212:104:22:22","Knielingen Siemens","49.02520949","8.34649883","0100","","","Pde:08212:104"
"de:08212:105:1:1","Knielingen Herweghstraße","49.03066968","8.34096521","0100","","","Pde:08212:105"
"de:08212:105:11:11","Knielingen Herweghstraße","49.03112320","8.34153115","0100","","","Pde:08212:105"
"de:08212:105:12:12","Knielingen Herweghstraße","49.03108786","8.34149522","0100","","","Pde:08212:105"
"de:08212:105:2:2a","Knielingen Herweghstraße","49.02982153","8.34176471","0100","","","Pde:08212:105"
"de:08212:105:21:21","Knielingen Herweghstraße","49.03054599","8.34136047","0100","","","Pde:08212:105"
"de:08212:105:22:22","Knielingen Herweghstraße","49.03061078","8.34122572","0100","","","Pde:08212:105"
"de:08212:105:92:2b","Knielingen Herweghstraße","49.03013370","8.34145030","0100","","","Pde:08212:105"
"de:08212:106:1:1","Knielingen Eggensteiner Straße","49.03350851","8.33821637","0100","","","Pde:08212:106"
"de:08212:106:11:11","Knielingen Eggensteiner Straße","49.03393844","8.33818942","0100","","","Pde:08212:106"
"de:08212:106:2:2","Knielingen Eggensteiner Straße","49.03319047","8.33846789","0100","","","Pde:08212:106"
"de:08212:106:22:22","Knielingen Eggensteiner Straße","49.03340838","8.33844094","0100","","","Pde:08212:106"
"de:08212:107:1:1","Knielingen Rheinbergstraße","49.03534011","8.33615922","0100","","","Pde:08212:107"
"de:08212:107:12:12","Knielingen Rheinbergstraße","49.03532833","8.33631194","0100","","","Pde:08212:107"
"de:08212:107:2:2","Knielingen Rheinbergstraße","49.03491608","8.33671618","0100","","","Pde:08212:107"
"de:08212:107:3:3","Knielingen Rheinbergstraße","49.03489841","8.33665330","0100","","","Pde:08212:107"
"de:08212:11:1:1","Durlach Auer Str./Dr. Schwabe","49.00052809","8.46315406","0100","","","Pde:08212:11"
"de:08212:11:2:2","Durlach Auer Str./Dr. Schwabe","49.00038665","8.46370203","0100","","","Pde:08212:11"
"de:08212:11:21:A","Durlach Auer Str./Dr. Schwabe","49.00057524","8.46340558","0100","","","Pde:08212:11"
"de:08212:11:22:B","Durlach Auer Str./Dr. Schwabe","49.00042201","8.46296541","0100","","","Pde:08212:11"
"de:08212:1101:1:1","KA Moltkestr./Städt. Klinikum","49.01571311","8.37517306","0100","","","Pde:08212:1101"
"de:08212:1101:2:2","KA Moltkestr./Städt. Klinikum","49.01537728","8.37510119","0100","","","Pde:08212:1101"
"de:08212:1101:3:3","KA Moltkestr./Städt. Klinikum","49.01522999","8.37420288","0100","","","Pde:08212:1101"
"de:08212:1101:4:4","KA Moltkestr./Städt. Klinikum","49.01518286","8.37469695","0100","","","Pde:08212:1101"
"de:08212:1101:91:1","KA Moltkestr./Städt. Klinikum","49.01522999","8.37416694","0100","","","Pde:08212:1101"
"de:08212:1103:1:1","KA Knielinger Allee/Städt. Klinikum","49.01884735","8.37540662","0100","","","Pde:08212:1103"
"de:08212:1103:2:2","KA Knielinger Allee/Städt. Klinikum","49.01890037","8.37531679","0100","","","Pde:08212:1103"
"de:08212:1103:23:23","KA Knielinger Allee/Städt. Klinikum","49.02039083","8.37241523","0100","","","Pde:08212:1103"
"de:08212:1103:24:24","KA Knielinger Allee/Städt. Klinikum","49.02026123","8.37222658","0100","","","Pde:08212:1103"
"de:08212:1104:1:1","Karlsruhe August-Bebel-Straße","49.02416097","8.37578391","0100","","","Pde:08212:1104"
"de:08212:1104:11:11","Karlsruhe August-Bebel-Straße","49.02433769","8.37536170","0100","","","Pde:08212:1104"
"de:08212:1104:2:2","Karlsruhe August-Bebel-Straße","49.02391945","8.37570306","0100","","","Pde:08212:1104"
"de:08212:1104:22:22","Karlsruhe August-Bebel-Straße","49.02427289","8.37504729","0100","","","Pde:08212:1104"
"de:08212:1105:1:1","Karlsruhe Kurt-Schumacher-Str.","49.03027506","8.37630493","0100","","","Pde:08212:1105"
"de:08212:1105:11:11","Karlsruhe Kurt-Schumacher-Str.","49.02979797","8.37488560","0100","","","Pde:08212:1105"
"de:08212:1105:12:12","Karlsruhe Kurt-Schumacher-Str.","49.02968606","8.37484068","0100","","","Pde:08212:1105"
"de:08212:1105:2:2","Karlsruhe Kurt-Schumacher-Str.","49.02998056","8.37623307","0100","","","Pde:08212:1105"
"de:08212:1106:1:1","Karlsruhe Haus Bethlehem","49.03310213","8.37661934","0100","","","Pde:08212:1106"
"de:08212:1106:2:2","Karlsruhe Haus Bethlehem","49.03325526","8.37658341","0100","","","Pde:08212:1106"
"de:08212:1106:22:22","Karlsruhe Haus Bethlehem","49.03356740","8.37531679","0100","","","Pde:08212:1106"
"de:08212:1110:1:1","Neureut Welschneureuter Straße","49.04481508","8.37470593","0100","","","Pde:08212:1110"
"de:08212:1110:11:11","Neureut Welschneureuter Straße","49.04469732","8.37333151","0100","","","Pde:08212:1110"
"de:08212:1110:12:12","Neureut Welschneureuter Straße","49.04453834","8.37345727","0100","","","Pde:08212:1110"
"de:08212:1110:2:2","Neureut Welschneureuter Straße","49.04442646","8.37394236","0100","","","Pde:08212:1110"
"de:08212:1110:21:21","Neureut Welschn. Straße (Ersatzhalt)","49.04446768","8.37433762","0100","","","Pde:08212:1110"
"de:08212:1110:22:22","Neureut Welschn. Straße (Ersatzhalt)","49.04433814","8.37403220","0100","","","Pde:08212:1110"
"de:08212:1111:1:1","Neureut Bärenweg","49.04702310","8.37856869","0100","","","Pde:08212:1111"
"de:08212:1111:2:2","Neureut Bärenweg","49.04718207","8.37878428","0100","","","Pde:08212:1111"
"de:08212:1111:3:3","Neureut Bärenweg","49.04719385","8.37914361","0100","","","Pde:08212:1111"
"de:08212:1111:3:4","Neureut Bärenweg","49.04711731","8.37884717","0100","","","Pde:08212:1111"
"de:08212:1114:1:1","Neureut Adolf-Ehrmann-Bad","49.05085010","8.38527910","0100","","","Pde:08212:1114"
"de:08212:1114:2:2","Neureut Adolf-Ehrmann-Bad","49.05040265","8.38443469","0100","","","Pde:08212:1114"
"de:08212:1114:3:11","Neureut Adolf-Ehrmann-Bad (Ersatzhalt)","49.05055572","8.38505453","0100","","","Pde:08212:1114"
"de:08212:1114:3:12","Neureut Adolf-Ehrmann-Bad (Ersatzhalt)","49.05056750","8.38495571","0100","","","Pde:08212:1114"
"de:08212:1115:1:1","Neureut Kirchfeld","49.05300486","8.38907898","0100","","","Pde:08212:1115"
"de:08212:1115:1:11","Neureut Kirchfeld (Ersatzhalt)","49.05267517","8.39026475","0100","","","Pde:08212:1115"
"de:08212:1115:1:12","Neureut Kirchfeld (Ersatzhalt)","49.05256332","8.39006712","0100","","","Pde:08212:1115"
"de:08212:1115:2:2","Neureut Kirchfeld","49.05263396","8.38831541","0100","","","Pde:08212:1115"
"de:08212:12:1:1","Karlsruhe Duale Hochschule","49.02725345","8.38618640","0100","","","Pde:08212:12"
"de:08212:12:12:12","Karlsruhe Duale Hochschule","49.02663497","8.38591691","0100","","","Pde:08212:12"
"de:08212:12:2:2","Karlsruhe Duale Hochschule","49.02657018","8.38599776","0100","","","Pde:08212:12"
"de:08212:1201:1:1","Karlsruhe Albtalbahnhof","48.99356158","8.39596007","0100","","","Pde:08212:1201"
"de:08212:1201:2:A","Karlsruhe Albtalbahnhof","48.99383272","8.39551990","0100","","","Pde:08212:1201"
"de:08212:1201:23:C","Karlsruhe Albtalbahnhof","48.99247114","8.39326513","0100","","","Pde:08212:1201"
"de:08212:1201:3:2","Karlsruhe Albtalbahnhof","48.99386219","8.39607685","0100","","","Pde:08212:1201"
"de:08212:1201:3:3","Karlsruhe Albtalbahnhof","48.99352032","8.39610380","0100","","","Pde:08212:1201"
"de:08212:1201:34:D","Karlsruhe Albtalbahnhof (Ersatzhalt)","48.99319024","8.39710992","0100","","","Pde:08212:1201"
"de:08212:1201:4:4","Karlsruhe Albtalbahnhof","48.99386219","8.39621160","0100","","","Pde:08212:1201"
"de:08212:1206:1:1","Karlsruhe Dammerstock","48.98468407","8.40364067","0100","","","Pde:08212:1206"
"de:08212:1206:12:12","Karlsruhe Dammerstock","48.98481966","8.40313761","0100","","","Pde:08212:1206"
"de:08212:1206:2:2","Karlsruhe Dammerstock","48.98421244","8.40361372","0100","","","Pde:08212:1206"
"de:08212:1207:0:1","Karlsruhe Schloss Rüppurr","48.98147103","8.40379338","0100","","","Pde:08212:1207"
"de:08212:1207:0:11","Karlsruhe Schloss Rüppurr","48.98104654","8.40365863","0100","","","Pde:08212:1207"
"de:08212:1207:0:2","Karlsruhe Schloss Rüppurr","48.98087556","8.40381135","0100","","","Pde:08212:1207"
"de:08212:1208:0:1","Rüppurr Ostendorfplatz","48.97598775","8.40664104","0100","","","Pde:08212:1208"
"de:08212:1208:0:2","Rüppurr Ostendorfplatz","48.97544529","8.40654223","0100","","","Pde:08212:1208"
"de:08212:1209:0:1","Rüppurr Tulpenstraße","48.97134124","8.40405389","0100","","","Pde:08212:1209"
"de:08212:1209:0:2","Rüppurr Tulpenstraße","48.97088128","8.40404491","0100","","","Pde:08212:1209"
"de:08212:1210:0:1","Rüppurr Battstraße","48.96570351","8.40477255","0100","","","Pde:08212:1210"
"de:08212:1210:0:11","Rüppurr Battstraße","48.96568582","8.40440424","0100","","","Pde:08212:1210"
"de:08212:1210:0:2","Rüppurr Battstraße","48.96492503","8.40482644","0100","","","Pde:08212:1210"
"de:08212:1211:0:11","Karlsruhe Erlenweg","48.98265605","8.40870717","0100","","",""
"de:08212:1213:11:11","Rüppurr Heinrich-Heine-Ring","48.96626378","8.40701833","0100","","","Pde:08212:1213"
"de:08212:1213:11:12","Rüppurr Heinrich-Heine-Ring","48.96635224","8.40700935","0100","","","Pde:08212:1213"
"de:08212:1214:11:11","Rüppurr Hegaustraße","48.96670608","8.41143804","0100","","","Pde:08212:1214"
"de:08212:1214:11:12","Rüppurr Hegaustraße","48.96679454","8.41075533","0100","","","Pde:08212:1214"
"de:08212:1215:11:11","Rüppurr Prinzenweg","48.96868758","8.41446537","0100","","","Pde:08212:1215"
"de:08212:1215:11:12","Rüppurr Prinzenweg","48.96870527","8.41441147","0100","","","Pde:08212:1215"
"de:08212:1216:11:11","Rüppurr Märchenring","48.97033876","8.41621708","0100","","","Pde:08212:1216"
"de:08212:1216:11:12","Rüppurr Märchenring","48.97055105","8.41574098","0100","","","Pde:08212:1216"
"de:08212:13:1:1","Neureut-Heide","49.03680063","8.38820761","0100","","","Pde:08212:13"
"de:08212:13:2:2","Neureut-Heide","49.03617049","8.38798303","0100","","","Pde:08212:13"
"de:08212:1510:1:1","Durlach Hubstraße","49.00722845","8.47248755","0100","","","Pde:08212:1510"
"de:08212:1510:2:2","Durlach Hubstraße","49.00708114","8.47201144","0100","","","Pde:08212:1510"
"de:08212:1521:1:1","Grötzingen","49.00606759","8.49293321","0100","","","Pde:08212:1521"
"de:08212:1521:2:11","Grötzingen Bahnhof","49.00608527","8.49347220","0100","","","Pde:08212:1521"
"de:08212:1521:2:12","Grötzingen Bahnhof","49.00612063","8.49344525","0100","","","Pde:08212:1521"
"de:08212:1521:3:2","Grötzingen","49.00606759","8.49279846","0100","","","Pde:08212:1521"
"de:08212:1521:3:3","Grötzingen","49.00612063","8.49238524","0100","","","Pde:08212:1521"
"de:08212:1521:4:13","Grötzingen Bahnhof","49.00661561","8.49271761","0100","","","Pde:08212:1521"
"de:08212:1525:1:1","Grötzingen Oberausstraße","49.00518367","8.50391062","0100","","","Pde:08212:1525"
"de:08212:1525:2:2","Grötzingen Oberausstraße","49.00530153","8.50359621","0100","","","Pde:08212:1525"
"de:08212:1527:0:1","Grötzingen Hl.-Kreuz-Kirche","49.00435277","8.50356028","0100","","","Pde:08212:1527"
"de:08212:1527:0:2","Grötzingen Hl.-Kreuz-Kirche","49.00448241","8.50365909","0100","","","Pde:08212:1527"
"de:08212:16:1:1","Durlach Friedrichschule","48.99933760","8.46855293","0100","","","Pde:08212:16"
"de:08212:16:2:2","Durlach Friedrichschule","48.99927867","8.46892124","0100","","","Pde:08212:16"
"de:08212:16:91:1","Durlach Friedrichschule","48.99933171","8.46860683","0100","","","Pde:08212:16"
"de:08212:16:92:2","Durlach Friedrichschule","48.99929046","8.46887632","0100","","","Pde:08212:16"
"de:08212:1600:1:1","Grötzingen Krappmühlenweg","49.00586724","8.51269614","0100","","","Pde:08212:1600"
"de:08212:1600:1:2","Grötzingen Krappmühlenweg","49.00587313","8.51204936","0100","","","Pde:08212:1600"
"de:08212:1600:2:21","Grötzingen Krappmühlenweg","49.00525438","8.51371124","0100","","","Pde:08212:1600"
"de:08212:1600:2:22","Grötzingen Krappmühlenweg","49.00541349","8.51308242","0100","","","Pde:08212:1600"
"de:08212:1644:1:1","Grötzingen Im Sonnental","49.00163604","8.50287756","0100","","","Pde:08212:1644"
"de:08212:1644:1:2","Grötzingen Im Sonnental","49.00182462","8.50293146","0100","","","Pde:08212:1644"
"de:08212:1644:1:3","Grötzingen Im Sonnental","49.00165961","8.50252721","0100","","","Pde:08212:1644"
"de:08212:17:1:1","Durlach Schlossplatz","48.99911954","8.47355655","0100","","","Pde:08212:17"
"de:08212:17:11:11","Durlach Schlossplatz","48.99902524","8.47448181","0100","","","Pde:08212:17"
"de:08212:17:2:2","Durlach Schlossplatz","48.99914901","8.47429317","0100","","","Pde:08212:17"
"de:08212:17:91:1","Durlach Schlossplatz","48.99912544","8.47381706","0100","","","Pde:08212:17"
"de:08212:17:92:2","Durlach Schlossplatz","48.99909597","8.47373621","0100","","","Pde:08212:17"
"de:08212:1700:1:1","Maxau","49.03598204","8.30783534","0100","","","Pde:08212:1700"
"de:08212:1700:2:2","Maxau","49.03601737","8.30708974","0100","","","Pde:08212:1700"
"de:08212:18:1:1","Durlach Turmberg","48.99987391","8.47851525","0100","","","Pde:08212:18"
"de:08212:18:1:2","Durlach Turmberg","48.99989749","8.47855118","0100","","","Pde:08212:18"
"de:08212:18:1:3","Durlach Turmberg","48.99993285","8.47823677","0100","","","Pde:08212:18"
"de:08212:18:1:4","Durlach Turmberg","49.00025110","8.47787744","0100","","","Pde:08212:18"
"de:08212:18:1:5","Durlach Turmberg","49.00012733","8.47816490","0100","","","Pde:08212:18"
"de:08212:18:1:6","Durlach Turmberg","49.00000946","8.47844338","0100","","","Pde:08212:18"
"de:08212:18:12:9","Durlach Turmberg","48.99943779","8.47868593","0100","","","Pde:08212:18"
"de:08212:18:13:12","Durlach Turmberg","49.00020984","8.47808406","0100","","","Pde:08212:18"
"de:08212:18:91:1","Durlach Turmberg","48.99989160","8.47847931","0100","","","Pde:08212:18"
"de:08212:19:1:1","Durlach Karl-Weysser-Straße","48.99867752","8.47671862","0100","","","Pde:08212:19"
"de:08212:19:11:11","Durlach Karl-Weysser-Straße","48.99858322","8.47670963","0100","","","Pde:08212:19"
"de:08212:2002:0:1","Durlach Friedhof","49.00250234","8.48335717","0100","","","Pde:08212:2002"
"de:08212:2002:0:2","Durlach Friedhof","49.00249645","8.48314157","0100","","","Pde:08212:2002"
"de:08212:2003:0:1","Grötzingen Augustenburg","49.00425848","8.49876327","0100","","","Pde:08212:2003"
"de:08212:2003:0:2","Grötzingen Augustenburg","49.00434688","8.49888005","0100","","","Pde:08212:2003"
"de:08212:2004:0:1","Durlach Neßlerstraße","49.00243752","8.48701331","0100","","",""
"de:08212:201:1:1","Karlsruhe Eckenerstraße","49.00576117","8.35044244","0100","","","Pde:08212:201"
"de:08212:201:2:2","Karlsruhe Eckenerstraße","49.00632098","8.35122397","0100","","","Pde:08212:201"
"de:08212:201:21:21","Karlsruhe Eckenerstraße","49.00644473","8.35117007","0100","","","Pde:08212:201"
"de:08212:201:22:22","Karlsruhe Eckenerstraße","49.00625027","8.35128685","0100","","","Pde:08212:201"
"de:08212:2016:1:1","Grötzingen LTZ Augustenberg","49.00313291","8.49266371","0100","","","Pde:08212:2016"
"de:08212:2016:1:2","Grötzingen LTZ Augustenberg","49.00315648","8.49278049","0100","","","Pde:08212:2016"
"de:08212:203:1:1","Karlsruhe Rheinhafenstraße","49.00138852","8.34489983","0100","","","Pde:08212:203"
"de:08212:203:2:2","Karlsruhe Rheinhafenstraße","49.00167729","8.34522323","0100","","","Pde:08212:203"
"de:08212:203:21:21","Karlsruhe Rheinhafenstraße","49.00209571","8.34538492","0100","","","Pde:08212:203"
"de:08212:203:22:22","Karlsruhe Rheinhafenstraße","49.00173622","8.34545679","0100","","","Pde:08212:203"
"de:08212:204:1:1","Daxlanden Thomas-Mann-Straße","48.99922563","8.34155810","0100","","","Pde:08212:204"
"de:08212:204:2:2","Daxlanden Thomas-Mann-Straße","48.99904293","8.34136047","0100","","","Pde:08212:204"
"de:08212:205:1:1","Daxlanden Karl-Delisle-Straße","48.99576009","8.33778517","0100","","","Pde:08212:205"
"de:08212:205:11:11","Daxlanden Karl-Delisle-Straße","48.99610783","8.33844094","0100","","","Pde:08212:205"
"de:08212:205:2:2","Daxlanden Karl-Delisle-Straße","48.99630233","8.33837806","0100","","","Pde:08212:205"
"de:08212:206:1:1","Daxlanden Dornröschenweg","48.99251829","8.33506328","0100","","","Pde:08212:206"
"de:08212:206:2:2","Daxlanden Dornröschenweg","48.99312541","8.33556634","0100","","","Pde:08212:206"
"de:08212:206:3:3","Daxlanden Dornröschenweg","48.99145730","8.33416496","0100","","","Pde:08212:206"
"de:08212:209:1:1","Daxlanden Nussbaumweg","48.98914660","8.33300614","0100","","","Pde:08212:209"
"de:08212:209:2:2","Daxlanden Nussbaumweg","48.98961229","8.33337445","0100","","","Pde:08212:209"
"de:08212:2102:0:1","KA-Grötzingen Emil-Arheit-Halle","49.02260582","8.49677800","0100","","",""
"de:08212:2103:0:1","Grötzingen Fröbelstraße","49.00769397","8.49115454","0100","","","Pde:08212:2103"
"de:08212:2103:0:2","Grötzingen Fröbelstraße","49.00773521","8.49105573","0100","","","Pde:08212:2103"
"de:08212:2104:0:11","Grötzingen Rathaus","49.00766450","8.49618511","0100","","","Pde:08212:2104"
"de:08212:2104:0:12","Grötzingen Rathaus","49.00761147","8.49521493","0100","","","Pde:08212:2104"
"de:08212:2104:0:13","Grötzingen Rathaus","49.00750540","8.49486459","0100","","","Pde:08212:2104"
"de:08212:2105:0:1","Grötzingen Karl-Leopold-Straße","49.01082871","8.49506221","0100","","","Pde:08212:2105"
"de:08212:2105:0:2","Grötzingen Karl-Leopold-Straße","49.01083461","8.49500832","0100","","","Pde:08212:2105"
"de:08212:2106:0:1","Grötzingen Nord","49.01517697","8.49419983","0100","","","Pde:08212:2106"
"de:08212:2106:0:2","Grötzingen Nord","49.01461725","8.49413695","0100","","","Pde:08212:2106"
"de:08212:2106:0:4","Grötzingen Nord","49.01467617","8.49420882","0100","","","Pde:08212:2106"
"de:08212:2107:0:1","Grötzingen Büchelbergstraße","49.00567277","8.49565510","0100","","","Pde:08212:2107"
"de:08212:2107:0:2","Grötzingen Büchelbergstraße","49.00565510","8.49560120","0100","","","Pde:08212:2107"
"de:08212:2108:0:1","Grötzingen Staigstraße","49.00286183","8.49789191","0100","","","Pde:08212:2108"
"de:08212:2108:0:2","Grötzingen Staigstraße","49.00293844","8.49786496","0100","","","Pde:08212:2108"
"de:08212:2109:0:1","Grötzingen Gustav-Hofmann-Str.","49.00402276","8.50661455","0100","","","Pde:08212:2109"
"de:08212:2109:0:2","Grötzingen Gustav-Hofmann-Str.","49.00403455","8.50653370","0100","","","Pde:08212:2109"
"de:08212:211:0:1","Karlsruhe Messe","48.98171275","8.32860439","0232","","",""
"de:08212:2110:2:3","Grötzingen Ringelberghohl","49.00346292","8.50233857","0100","","","Pde:08212:2110"
"de:08212:2110:2:4","Grötzingen Ringelberghohl","49.00348650","8.50245535","0100","","","Pde:08212:2110"
"de:08212:2111:1:1","Grötzingen Eisenbahnstraße","49.00510117","8.50113483","0100","","",""
"de:08212:2112:1:1","Grötzingen An der Pfinz","49.00592616","8.50196128","0100","","",""
"de:08212:2222:0:1","Stupferich Efeustraße","48.95665587","8.51250750","0100","","","Pde:08212:2222"
"de:08212:2222:0:2","Stupferich Efeustraße","48.95672076","8.51269614","0100","","","Pde:08212:2222"
"de:08212:23:1:1","Neureut Rosmarinweg","49.03563457","8.38551267","0100","","","Pde:08212:23"
"de:08212:23:1:2","Neureut Rosmarinweg","49.03524588","8.38593487","0100","","","Pde:08212:23"
"de:08212:2302:0:1","Durlach Dürrbachstraße","48.99481115","8.48197376","0100","","","Pde:08212:2302"
"de:08212:2302:0:2","Durlach Dürrbachstraße","48.99488777","8.48194681","0100","","","Pde:08212:2302"
"de:08212:2303:0:1","Durlach Lerchenberg","48.99221768","8.48668992","0100","","","Pde:08212:2303"
"de:08212:2303:0:2","Durlach Lerchenberg","48.99156340","8.48826197","0100","","","Pde:08212:2303"
"de:08212:2304:0:1","Durlach Eisenhafengrund","48.98810322","8.49169353","0100","","","Pde:08212:2304"
"de:08212:2304:0:2","Durlach Eisenhafengrund","48.98871628","8.49131624","0100","","","Pde:08212:2304"
"de:08212:2305:0:1","Thomashof","48.96714839","8.50446758","0100","","","Pde:08212:2305"
"de:08212:2305:0:2","Durlach Thomashof","48.96776171","8.50429690","0100","","","Pde:08212:2305"
"de:08212:2306:0:1","Stupferich Gerberastraße","48.95637864","8.50734218","0100","","","Pde:08212:2306"
"de:08212:2306:0:2","Stupferich Gerberastraße","48.95649661","8.50732422","0100","","","Pde:08212:2306"
"de:08212:2307:0:1","Stupferich Karlsbader Str.","48.95388935","8.50773744","0100","","","Pde:08212:2307"
"de:08212:2307:0:2","Stupferich Karlsbader Str.","48.95423739","8.50876152","0100","","","Pde:08212:2307"
"de:08212:2307:0:3","Stupferich Karlsbader Str.","48.95397193","8.50799795","0100","","","Pde:08212:2307"
"de:08212:231:1:1","Hagsfeld Süd","49.02421988","8.44912237","0100","","","Pde:08212:231"
"de:08212:231:11:4","Hagsfeld Süd","49.02509757","8.44977814","0100","","","Pde:08212:231"
"de:08212:231:12:3","Hagsfeld Süd","49.02486784","8.45000272","0100","","","Pde:08212:231"
"de:08212:231:2:2","Hagsfeld Süd","49.02465578","8.44991289","0100","","","Pde:08212:231"
"de:08212:233:1:1","Hagsfeld Geroldsäcker","49.03290777","8.45535668","0100","","","Pde:08212:233"
"de:08212:233:2:2","Hagsfeld Geroldsäcker","49.03277231","8.45536566","0100","","","Pde:08212:233"
"de:08212:237:1:1","Knielingen Sudetenstraße","49.03054010","8.34512441","0100","","","Pde:08212:237"
"de:08212:237:11:11","Knielingen Sudetenstraße","49.03055777","8.34531306","0100","","","Pde:08212:237"
"de:08212:237:12:12","Knielingen Sudetenstraße","49.03040464","8.34512441","0100","","","Pde:08212:237"
"de:08212:237:2:2","Knielingen Sudetenstraße","49.03028684","8.34553764","0100","","","Pde:08212:237"
"de:08212:238:1:1","Knielingen Pionierstraße","49.03348495","8.34808885","0100","","","Pde:08212:238"
"de:08212:238:11:11","Knielingen Pionierstraße","49.03337305","8.34714562","0100","","","Pde:08212:238"
"de:08212:238:12:12","Knielingen Pionierstraße","49.03331415","8.34718155","0100","","","Pde:08212:238"
"de:08212:238:2:2","Knielingen Pionierstraße","49.03321403","8.34769359","0100","","","Pde:08212:238"
"de:08212:238:23:23","Knielingen Pionierstraße","49.03265452","8.34719952","0100","","","Pde:08212:238"
"de:08212:238:24:24","Knielingen Pionierstraße","49.03340249","8.34780139","0100","","","Pde:08212:238"
"de:08212:239:1:1","Knielingen Egon-Eiermann-Allee","49.03598204","8.35015498","0100","","","Pde:08212:239"
"de:08212:239:11:11","Knielingen Egon-Eiermann-Allee","49.03519288","8.35120601","0100","","","Pde:08212:239"
"de:08212:239:12:12","Knielingen Egon-Eiermann-Allee","49.03505153","8.35129584","0100","","","Pde:08212:239"
"de:08212:239:2:2","Knielingen Egon-Eiermann-Allee","49.03568758","8.35047837","0100","","","Pde:08212:239"
"de:08212:239:23:23","Knielingen Egon-Eiermann-Allee","49.03595259","8.35032566","0100","","","Pde:08212:239"
"de:08212:239:24:24","Knielingen Egon-Eiermann-Allee","49.03565224","8.35037057","0100","","","Pde:08212:239"
"de:08212:240:2:2","Knielingen Nord","49.03774288","8.34778342","0100","","","Pde:08212:240"
"de:08212:240:21:21","Knielingen Nord","49.03849078","8.34697494","0100","","","Pde:08212:240"
"de:08212:26:11:21","Karlsruhe Rheinhafen Nord","49.01710351","8.32049261","0100","","","Pde:08212:26"
"de:08212:3:1:1","KA Durlacher Tor/KIT-Campus Süd","49.00893728","8.41777117","0100","","","Pde:08212:3"
"de:08212:3:11:11","KA Durlacher Tor/KIT-Campus Süd","49.00919066","8.41792388","0100","","","Pde:08212:3"
"de:08212:3:11:13","KA Durlacher Tor/KIT-Campus Süd","49.00939100","8.41845389","0100","","","Pde:08212:3"
"de:08212:3:11:14","KA Durlacher Tor/KIT-Campus Süd","49.00929083","8.41819338","0100","","","Pde:08212:3"
"de:08212:3:12:12","KA Durlacher Tor/KIT-Campus Süd","49.00861320","8.41855270","0100","","","Pde:08212:3"
"de:08212:3:2:2","KA Durlacher Tor/KIT-Campus Süd","49.00873105","8.41873237","0100","","","Pde:08212:3"
"de:08212:3:3:3","KA Durlacher Tor/KIT-Campus Süd","49.00924369","8.41778015","0100","","","Pde:08212:3"
"de:08212:3:4:4","KA Durlacher Tor/KIT-Campus Süd","49.00954420","8.41863355","0100","","","Pde:08212:3"
"de:08212:3002:0:1","Karlsruhe Studentenhaus","49.01146507","8.41812151","0100","","","Pde:08212:3002"
"de:08212:3002:0:2","Karlsruhe Studentenhaus","49.01098191","8.41789693","0100","","","Pde:08212:3002"
"de:08212:3003:0:A","Karlsruhe Pastor-Felke-Straße","49.01548922","8.42224478","0100","","","Pde:08212:3003"
"de:08212:3003:0:B","Karlsruhe Pastor-Felke-Straße","49.01560116","8.42226274","0100","","","Pde:08212:3003"
"de:08212:3004:0:1","Karlsruhe Büchiger Allee","49.01981350","8.42130155","0100","","","Pde:08212:3004"
"de:08212:3004:0:2","Karlsruhe Büchiger Allee","49.01954840","8.42130155","0100","","","Pde:08212:3004"
"de:08212:3005:0:1","Karlsruhe Rintheimer Querallee","49.02554525","8.42465226","0100","","","Pde:08212:3005"
"de:08212:3005:0:2","Karlsruhe Rintheimer Querallee","49.02523305","8.42396056","0100","","","Pde:08212:3005"
"de:08212:3008:0:1","Waldstadt Breslauer Straße","49.02868476","8.43010504","0100","","","Pde:08212:3008"
"de:08212:3008:0:2","Waldstadt Breslauer Straße","49.02901460","8.43041945","0100","","","Pde:08212:3008"
"de:08212:3009:0:1","Waldstadt Schneidemühler Str.","49.03526944","8.43151539","0100","","","Pde:08212:3009"
"de:08212:3009:0:2","Waldstadt Schneidemühler Str.","49.03486896","8.43092250","0100","","","Pde:08212:3009"
"de:08212:3010:0:1","Waldstadt Kolberger Straße","49.03857912","8.43536018","0100","","","Pde:08212:3010"
"de:08212:3010:0:2","Waldstadt Kolberger Straße","49.03816100","8.43470441","0100","","","Pde:08212:3010"
"de:08212:3011:0:1","Waldstadt Elbinger Straße West","49.04124083","8.43845039","0100","","","Pde:08212:3011"
"de:08212:3011:0:2","Waldstadt Elbinger Straße West","49.04086396","8.43784851","0100","","","Pde:08212:3011"
"de:08212:3012:1:1","Waldstadt Europäische Schule","49.04479742","8.44679573","0100","","","Pde:08212:3012"
"de:08212:3012:11:11","Waldstadt Europäische Schule","49.04538623","8.44770303","0100","","","Pde:08212:3012"
"de:08212:3012:2:2","Waldstadt Europäische Schule","49.04533913","8.44729879","0100","","","Pde:08212:3012"
"de:08212:3013:1:1","Hagsfeld Reitschulschlag","49.04252453","8.46080047","0100","","","Pde:08212:3013"
"de:08212:3013:2:2","Hagsfeld Reitschulschlag","49.04326058","8.46087234","0100","","","Pde:08212:3013"
"de:08212:3013:3:3","Hagsfeld Reitschulschlag","49.04407906","8.46106996","0100","","","Pde:08212:3013"
"de:08212:3014:0:A","Karlsruhe Emil-Gött-Straße","49.01336229","8.42060086","0100","","","Pde:08212:3014"
"de:08212:3014:0:B","Karlsruhe Emil-Gött-Straße","49.01332694","8.42033137","0100","","","Pde:08212:3014"
"de:08212:3017:1:1","Waldstadt Elbinger Straße Ost","49.04079330","8.45069442","0100","","","Pde:08212:3017"
"de:08212:3017:2:2","Waldstadt Elbinger Straße Ost","49.04064608","8.45049679","0100","","","Pde:08212:3017"
"de:08212:302:1:1","Daxlanden Mauerweg","49.00780593","8.33900688","0100","","","Pde:08212:302"
"de:08212:302:11:11","Daxlanden Mauerweg","49.00784128","8.33939316","0100","","","Pde:08212:302"
"de:08212:302:2:2","Daxlanden Mauerweg","49.00771164","8.33951892","0100","","","Pde:08212:302"
"de:08212:302:22:22","Daxlanden Mauerweg","49.00777646","8.33957282","0100","","","Pde:08212:302"
"de:08212:303:1:1","Daxlanden Ankerstraße","49.00649187","8.33441649","0100","","","Pde:08212:303"
"de:08212:303:2:2","Daxlanden Ankerstraße","49.00672168","8.33481175","0100","","","Pde:08212:303"
"de:08212:303:21:21","Daxlanden Ankerstraße","49.00735809","8.33329360","0100","","","Pde:08212:303"
"de:08212:303:22:22","Daxlanden Ankerstraße","49.00734630","8.33333851","0100","","","Pde:08212:303"
"de:08212:304:1:1","Daxlanden Kirchplatz","49.00541349","8.33177545","0100","","","Pde:08212:304"
"de:08212:304:2:2","Daxlanden Kirchplatz","49.00523081","8.33236833","0100","","","Pde:08212:304"
"de:08212:304:21:A","Daxlanden Kirchplatz","49.00537813","8.33208087","0100","","","Pde:08212:304"
"de:08212:304:22:22","Daxlanden Kirchplatz","49.00527206","8.33272766","0100","","","Pde:08212:304"
"de:08212:304:23:C","Daxlanden Kirchplatz","49.00567867","8.33014949","0100","","","Pde:08212:304"
"de:08212:304:24:D","Daxlanden Kirchplatz","49.00548420","8.33025729","0100","","","Pde:08212:304"
"de:08212:305:1:1","Daxlanden Hammweg","49.00390490","8.32670895","0100","","","Pde:08212:305"
"de:08212:305:2:2","Daxlanden Hammweg","49.00349239","8.32827202","0100","","","Pde:08212:305"
"de:08212:305:22:22","Daxlanden Hammweg","49.00423491","8.32682573","0100","","","Pde:08212:305"
"de:08212:306:1:1","Daxlanden Waidweg","49.00438223","8.32210957","0100","","","Pde:08212:306"
"de:08212:306:11:11","Daxlanden Waidweg","49.00487135","8.32238805","0100","","","Pde:08212:306"
"de:08212:306:2:2","Daxlanden Waidweg","49.00428795","8.32273839","0100","","","Pde:08212:306"
"de:08212:306:21:21","Daxlanden Waidweg","49.00501278","8.32323247","0100","","","Pde:08212:306"
"de:08212:306:3:3","Daxlanden Waidweg","49.00467688","8.32237008","0100","","","Pde:08212:306"
"de:08212:307:1:1","Daxlanden Altrheinbrücke","49.00085812","8.31190471","0100","","","Pde:08212:307"
"de:08212:307:2:2","Daxlanden Altrheinbrücke","49.00083454","8.31194064","0100","","","Pde:08212:307"
"de:08212:307:91:1","Daxlanden Altrheinbrücke","49.00089348","8.31192268","0100","","","Pde:08212:307"
"de:08212:307:92:2","Daxlanden Altrheinbrücke","49.00081686","8.31190471","0100","","","Pde:08212:307"
"de:08212:308:21:21","Daxlanden Rappenwört","48.99919026","8.29530384","0100","","","Pde:08212:308"
"de:08212:308:3:3","Daxlanden Rappenwört","48.99891327","8.29542063","0100","","","Pde:08212:308"
"de:08212:310:1:1","Karlsruhe Dunantstraße","49.01145918","8.43575544","0100","","","Pde:08212:310"
"de:08212:310:2:2","Karlsruhe Dunantstraße","49.01145918","8.43631240","0100","","","Pde:08212:310"
"de:08212:3102:1:1","Hagsfeld Bahnhof","49.02722989","8.45373073","0100","","","Pde:08212:3102"
"de:08212:3102:11:11","Hagsfeld Bahnhof","49.02697661","8.45410802","0100","","","Pde:08212:3102"
"de:08212:3102:12:12","Hagsfeld Bahnhof","49.02697072","8.45430565","0100","","","Pde:08212:3102"
"de:08212:3102:2:2","Hagsfeld Bahnhof","49.02771878","8.45394632","0100","","","Pde:08212:3102"
"de:08212:3103:0:1","Hagsfeld Oberdorfstraße","49.02827245","8.45592262","0100","","","Pde:08212:3103"
"de:08212:3103:0:2","Hagsfeld Oberdorfstraße","49.02825478","8.45581482","0100","","","Pde:08212:3103"
"de:08212:3104:0:1","Hagsfeld Julius-Bender-Straße","49.02907939","8.45676703","0100","","","Pde:08212:3104"
"de:08212:3104:0:2","Hagsfeld Julius-Bender-Straße","49.02931500","8.45711738","0100","","","Pde:08212:3104"
"de:08212:3105:0:1","Hagsfeld Pfizer","49.02356012","8.45326360","0100","","","Pde:08212:3105"
"de:08212:3105:0:2","Hagsfeld Pfizer","49.02359547","8.45324564","0100","","","Pde:08212:3105"
"de:08212:3106:0:1","Hagsfeld An der Tagweide","49.02102706","8.45644364","0100","","","Pde:08212:3106"
"de:08212:3106:0:2","Hagsfeld An der Tagweide","49.02108008","8.45647059","0100","","","Pde:08212:3106"
"de:08212:3106:0:3","Hagsfeld An der Tagweide","49.02082088","8.45785400","0100","","","Pde:08212:3106"
"de:08212:3107:11:2","Hagsfeld Printzstraße","49.02374863","8.46301931","0100","","","Pde:08212:3107"
"de:08212:3107:12:1","Hagsfeld Printzstraße","49.02370150","8.46307321","0100","","","Pde:08212:3107"
"de:08212:3107:13:3","Hagsfeld Printzstraße","49.02444961","8.46141132","0100","","","Pde:08212:3107"
"de:08212:3108:0:1","Hagsfeld Neue Wiesen","49.02052633","8.46097115","0100","","","Pde:08212:3108"
"de:08212:3108:0:2","Hagsfeld Neue Wiesen","49.02050865","8.46099810","0100","","","Pde:08212:3108"
"de:08212:3109:0:1","Hagsfeld Storrenacker Süd","49.01892983","8.46699885","0100","","","Pde:08212:3109"
"de:08212:3109:0:2","Hagsfeld Storrenacker Süd","49.01894750","8.46694495","0100","","","Pde:08212:3109"
"de:08212:3110:0:1","Hagsfeld Storrenacker Mitte","49.02113899","8.46821157","0100","","","Pde:08212:3110"
"de:08212:3110:0:2","Hagsfeld Storrenacker Mitte","49.02087390","8.46799598","0100","","","Pde:08212:3110"
"de:08212:3111:0:1","Hagsfeld Storrenacker Nord","49.02523894","8.47057414","0100","","","Pde:08212:3111"
"de:08212:3111:0:2","Hagsfeld Storrenacker Nord","49.02532730","8.47052922","0100","","","Pde:08212:3111"
"de:08212:3112:0:1","Durlach Breit","49.02075608","8.47785948","0100","","","Pde:08212:3112"
"de:08212:3112:0:2","Durlach Breit","49.02077964","8.47820982","0100","","","Pde:08212:3112"
"de:08212:3114:0:1","Durlach Ochsentorstraße","49.00130012","8.47333197","0100","","","Pde:08212:3114"
"de:08212:3114:0:2","Durlach Ochsentorstraße","49.00126476","8.47375418","0100","","","Pde:08212:3114"
"de:08212:3115:0:1","Hagsfeld Nord","49.03462161","8.46013572","0100","","","Pde:08212:3115"
"de:08212:3115:0:2","Hagsfeld Nord","49.03419168","8.46015368","0100","","","Pde:08212:3115"
"de:08212:3116:0:1","Hagsfeld Schwetzinger Straße","49.03108197","8.45885113","0100","","","Pde:08212:3116"
"de:08212:3116:0:2","Hagsfeld Schwetzinger Straße","49.03145302","8.45912062","0100","","","Pde:08212:3116"
"de:08212:3117:0:1","Hagsfeld Elfmorgenbruch","49.01974870","8.46057589","0100","","","Pde:08212:3117"
"de:08212:3117:0:2","Hagsfeld Elfmorgenbruch","49.01986652","8.46036030","0100","","","Pde:08212:3117"
"de:08212:3118:0:1","Grötzingen Weidbruch","49.03393255","8.47374519","0100","","","Pde:08212:3118"
"de:08212:3118:0:2","Grötzingen Weidbruch","49.03376764","8.47361943","0100","","","Pde:08212:3118"
"de:08212:3120:0:1","Durlach An der Fayence","49.00174212","8.46972972","0100","","","Pde:08212:3120"
"de:08212:3120:0:2","Durlach An der Fayence","49.00171265","8.46961294","0100","","","Pde:08212:3120"
"de:08212:3121:0:1","Durlach Am Heegwald","49.01758071","8.47909915","0100","","","Pde:08212:3121"
"de:08212:3121:0:2","Durlach Am Heegwald","49.01771032","8.47834457","0100","","","Pde:08212:3121"
"de:08212:313:1:1","Rintheim Forststraße","49.01395148","8.44198975","0100","","","Pde:08212:313"
"de:08212:313:2:2","Rintheim Forststraße","49.01420483","8.44228619","0100","","","Pde:08212:313"
"de:08212:314:1:1","Rintheim","49.01629048","8.44376841","0100","","","Pde:08212:314"
"de:08212:315:1:1","Karlsruhe Stadtwerke","49.00711649","8.34399253","0100","","","Pde:08212:315"
"de:08212:315:11:11","Karlsruhe Stadtwerke","49.00715774","8.34432491","0100","","","Pde:08212:315"
"de:08212:315:2:2","Karlsruhe Stadtwerke","49.00710471","8.34388474","0100","","","Pde:08212:315"
"de:08212:315:22:22","Karlsruhe Stadtwerke","49.00717542","8.34397457","0100","","","Pde:08212:315"
"de:08212:315:25:25","Karlsruhe Stadtwerke","49.00711060","8.34449559","0100","","","Pde:08212:315"
"de:08212:32:1:1","Grötzingen Paul-Rein-Straße","49.00124708","8.50413520","0100","","","Pde:08212:32"
"de:08212:32:1:2","Grötzingen Paul-Rein-Straße","49.00127065","8.50387469","0100","","","Pde:08212:32"
"de:08212:3205:0:1","Hagsfeld Schäferstraße","49.02848450","8.46115980","0100","","","Pde:08212:3205"
"de:08212:3205:0:2","Hagsfeld Schäferstraße","49.02857874","8.46093522","0100","","","Pde:08212:3205"
"de:08212:3206:0:1","Hagsfeld Brückenstraße","49.02654661","8.46346847","0100","","","Pde:08212:3206"
"de:08212:3206:0:2","Hagsfeld Brückenstraße","49.02700017","8.46399847","0100","","","Pde:08212:3206"
"de:08212:3211:0:1","Grötzingen Pfinzhof","49.03228347","8.47167008","0100","","","Pde:08212:3211"
"de:08212:3211:0:2","Grötzingen Pfinzhof","49.03228347","8.47161619","0100","","","Pde:08212:3211"
"de:08212:3212:0:1","Grötzingen Ohmstraße","49.02735947","8.47281993","0100","","","Pde:08212:3212"
"de:08212:3212:0:2","Grötzingen Ohmstraße","49.02721222","8.47262230","0100","","","Pde:08212:3212"
"de:08212:3213:0:1","Grötzingen Greschbachstraße","49.02975674","8.47311637","0100","","","Pde:08212:3213"
"de:08212:3213:0:2","Grötzingen Greschbachstraße","49.02966839","8.47309841","0100","","","Pde:08212:3213"
"de:08212:3214:0:1","Grötzingen Rossweid","49.03533422","8.47204738","0100","","",""
"de:08212:32586:1:1","Karlsruhe-Knielingen","49.02692359","8.34087538","0100","","","Pde:08212:32586"
"de:08212:32586:2:2","Karlsruhe-Knielingen","49.02639347","8.34150420","0100","","","Pde:08212:32586"
"de:08212:32587:1:1","Karlsruhe-Mühlburg","49.01490006","8.35093651","0100","","","Pde:08212:32587"
"de:08212:32587:2:2","Karlsruhe-Mühlburg","49.01435212","8.35117906","0100","","","Pde:08212:32587"
"de:08212:33:1:1","Grötzingen Fikentscherstraße","49.00174801","8.50717150","0100","","","Pde:08212:33"
"de:08212:33:1:2","Grötzingen Fikentscherstraße","49.00173622","8.50700981","0100","","","Pde:08212:33"
"de:08212:3301:1:1","Hagsfeld Jenaer Straße","49.03573469","8.45612923","0100","","","Pde:08212:3301"
"de:08212:3301:2:2","Hagsfeld Jenaer Straße","49.03614105","8.45628194","0100","","","Pde:08212:3301"
"de:08212:3302:0:1","Hagsfeld Hallesche Allee","49.03480418","8.45414395","0100","","","Pde:08212:3302"
"de:08212:3302:0:2","Hagsfeld Hallesche Allee","49.03491019","8.45334445","0100","","","Pde:08212:3302"
"de:08212:34:1:1","Grötzingen Am Schwalbenloch","49.00064006","8.50076652","0100","","",""
"de:08212:35:1:1","Grötzingen Vogelsang","48.99970890","8.49963464","0100","","",""
"de:08212:37:11:11","Karlsruhe Europaplatz","49.01006861","8.39311241","0100","","","Pde:08212:37"
"de:08212:37:22:22","Karlsruhe Europaplatz","49.01033966","8.39348971","0100","","","Pde:08212:37"
